header: 
  seq: 3345
  stamp: 
    secs: 1558789551
    nsecs: 221596123
  frame_id: "base_link"
status: 
  status: 0
  service: 1
latitude: 51.4824444
longitude: -0.2180465
altitude: 54.9985215352
position_covariance: [0.0036, 0.0, 0.0, 0.0, 0.0036, 0.0, 0.0, 0.0, 0.003969]
position_covariance_type: 2
---
header: 
  seq: 3346
  stamp: 
    secs: 1558789551
    nsecs: 321751953
  frame_id: "base_link"
status: 
  status: 0
  service: 1
latitude: 51.4824444
longitude: -0.2180463
altitude: 55.0125213044
position_covariance: [0.0036, 0.0, 0.0, 0.0, 0.0036, 0.0, 0.0, 0.0, 0.003969]
position_covariance_type: 2
---
header: 
  seq: 3347
  stamp: 
    secs: 1558789551
    nsecs: 425537266
  frame_id: "base_link"
status: 
  status: 0
  service: 1
latitude: 51.4824443
longitude: -0.2180461
altitude: 55.0305209519
position_covariance: [0.0036, 0.0, 0.0, 0.0, 0.0036, 0.0, 0.0, 0.0, 0.003969]
position_covariance_type: 2
---
header: 
  seq: 3348
  stamp: 
    secs: 1558789551
    nsecs: 522807642
  frame_id: "base_link"
status: 
  status: 0
  service: 1
latitude: 51.4824442
longitude: -0.218046
altitude: 55.0425207148
position_covariance: [0.0046240000000000005, 0.0, 0.0, 0.0, 0.0046240000000000005, 0.0, 0.0, 0.0, 0.0050409999999999995]
position_covariance_type: 2
---
header: 
  seq: 3349
  stamp: 
    secs: 1558789551
    nsecs: 623476271
  frame_id: "base_link"
status: 
  status: 0
  service: 1
latitude: 51.4824442
longitude: -0.2180459
altitude: 55.0515205994
position_covariance: [0.0046240000000000005, 0.0, 0.0, 0.0, 0.0046240000000000005, 0.0, 0.0, 0.0, 0.0050409999999999995]
position_covariance_type: 2
---
header: 
  seq: 3350
  stamp: 
    secs: 1558789551
    nsecs: 723883352
  frame_id: "base_link"
status: 
  status: 0
  service: 1
latitude: 51.4824441
longitude: -0.2180459
altitude: 55.0575204778
position_covariance: [0.0046240000000000005, 0.0, 0.0, 0.0, 0.0046240000000000005, 0.0, 0.0, 0.0, 0.0050409999999999995]
position_covariance_type: 2
---
header: 
  seq: 3351
  stamp: 
    secs: 1558789551
    nsecs: 822933202
  frame_id: "base_link"
status: 
  status: 0
  service: 1
latitude: 51.4824441
longitude: -0.2180459
altitude: 55.0655204778
position_covariance: [0.0046240000000000005, 0.0, 0.0, 0.0, 0.0046240000000000005, 0.0, 0.0, 0.0, 0.0050409999999999995]
position_covariance_type: 2
---
header: 
  seq: 3352
  stamp: 
    secs: 1558789551
    nsecs: 922159241
  frame_id: "base_link"
status: 
  status: 0
  service: 1
latitude: 51.4824439
longitude: -0.2180458
altitude: 55.076520119
position_covariance: [0.0046240000000000005, 0.0, 0.0, 0.0, 0.0046240000000000005, 0.0, 0.0, 0.0, 0.0050409999999999995]
position_covariance_type: 2
---
header: 
  seq: 3353
  stamp: 
    secs: 1558789552
    nsecs:  25666528
  frame_id: "base_link"
status: 
  status: 0
  service: 1
latitude: 51.4824438
longitude: -0.2180457
altitude: 55.090519882
position_covariance: [0.0046240000000000005, 0.0, 0.0, 0.0, 0.0046240000000000005, 0.0, 0.0, 0.0, 0.0050409999999999995]
position_covariance_type: 2
---
header: 
  seq: 3354
  stamp: 
    secs: 1558789552
    nsecs: 125355265
  frame_id: "base_link"
status: 
  status: 0
  service: 1
latitude: 51.4824436
longitude: -0.2180456
altitude: 55.1065195232
position_covariance: [0.0046240000000000005, 0.0, 0.0, 0.0, 0.0046240000000000005, 0.0, 0.0, 0.0, 0.0050409999999999995]
position_covariance_type: 2
---
header: 
  seq: 3355
  stamp: 
    secs: 1558789552
    nsecs: 224613690
  frame_id: "base_link"
status: 
  status: 0
  service: 1
latitude: 51.4824433
longitude: -0.2180454
altitude: 55.1205189274
position_covariance: [0.0046240000000000005, 0.0, 0.0, 0.0, 0.0046240000000000005, 0.0, 0.0, 0.0, 0.0050409999999999995]
position_covariance_type: 2
---
header: 
  seq: 3356
  stamp: 
    secs: 1558789552
    nsecs: 321979880
  frame_id: "base_link"
status: 
  status: 0
  service: 1
latitude: 51.4824431
longitude: -0.2180452
altitude: 55.1245184533
position_covariance: [0.0121, 0.0, 0.0, 0.0, 0.0121, 0.0, 0.0, 0.0, 0.009025]
position_covariance_type: 2
---
header: 
  seq: 3357
  stamp: 
    secs: 1558789552
    nsecs: 423348015
  frame_id: "base_link"
status: 
  status: 0
  service: 1
latitude: 51.4824429
longitude: -0.2180449
altitude: 55.1195178637
position_covariance: [0.0121, 0.0, 0.0, 0.0, 0.0121, 0.0, 0.0, 0.0, 0.009025]
position_covariance_type: 2
---
header: 
  seq: 3358
  stamp: 
    secs: 1558789552
    nsecs: 524534768
  frame_id: "base_link"
status: 
  status: 0
  service: 1
latitude: 51.4824426
longitude: -0.2180446
altitude: 55.1105171525
position_covariance: [0.012544000000000001, 0.0, 0.0, 0.0, 0.012544000000000001, 0.0, 0.0, 0.0, 0.009216]
position_covariance_type: 2
---
header: 
  seq: 3359
  stamp: 
    secs: 1558789552
    nsecs: 621927238
  frame_id: "base_link"
status: 
  status: 0
  service: 1
latitude: 51.4824424
longitude: -0.2180444
altitude: 55.1005166784
position_covariance: [0.012544000000000001, 0.0, 0.0, 0.0, 0.012544000000000001, 0.0, 0.0, 0.0, 0.009216]
position_covariance_type: 2
---
header: 
  seq: 3360
  stamp: 
    secs: 1558789552
    nsecs: 722347042
  frame_id: "base_link"
status: 
  status: 0
  service: 1
latitude: 51.4824422
longitude: -0.2180443
altitude: 55.0885163197
position_covariance: [0.016129, 0.0, 0.0, 0.0, 0.016129, 0.0, 0.0, 0.0, 0.017161000000000003]
position_covariance_type: 2
---
header: 
  seq: 3361
  stamp: 
    secs: 1558789552
    nsecs: 821291126
  frame_id: "base_link"
status: 
  status: 0
  service: 1
latitude: 51.482442
longitude: -0.2180443
altitude: 55.0735160764
position_covariance: [0.016129, 0.0, 0.0, 0.0, 0.016129, 0.0, 0.0, 0.0, 0.017161000000000003]
position_covariance_type: 2
---
header: 
  seq: 3362
  stamp: 
    secs: 1558789552
    nsecs: 925229681
  frame_id: "base_link"
status: 
  status: 0
  service: 1
latitude: 51.4824417
longitude: -0.2180444
altitude: 55.0485158268
position_covariance: [0.031328999999999996, 0.0, 0.0, 0.0, 0.031328999999999996, 0.0, 0.0, 0.0, 0.034969]
position_covariance_type: 2
---
header: 
  seq: 3363
  stamp: 
    secs: 1558789553
    nsecs:  21590207
  frame_id: "base_link"
status: 
  status: 0
  service: 1
latitude: 51.4824415
longitude: -0.2180446
altitude: 55.0275158143
position_covariance: [0.031328999999999996, 0.0, 0.0, 0.0, 0.031328999999999996, 0.0, 0.0, 0.0, 0.034969]
position_covariance_type: 2
---
header: 
  seq: 3364
  stamp: 
    secs: 1558789553
    nsecs: 125035076
  frame_id: "base_link"
status: 
  status: 0
  service: 1
latitude: 51.4824413
longitude: -0.2180449
altitude: 55.0215159172
position_covariance: [0.047089, 0.0, 0.0, 0.0, 0.047089, 0.0, 0.0, 0.0, 0.0529]
position_covariance_type: 2
---
header: 
  seq: 3365
  stamp: 
    secs: 1558789553
    nsecs: 223165005
  frame_id: "base_link"
status: 
  status: 0
  service: 1
latitude: 51.4824412
longitude: -0.218045
altitude: 55.020515911
position_covariance: [0.047089, 0.0, 0.0, 0.0, 0.047089, 0.0, 0.0, 0.0, 0.0529]
position_covariance_type: 2
---
header: 
  seq: 3366
  stamp: 
    secs: 1558789553
    nsecs: 323492719
  frame_id: "base_link"
status: 
  status: 0
  service: 1
latitude: 51.4824412
longitude: -0.2180451
altitude: 55.0165160264
position_covariance: [0.068121, 0.0, 0.0, 0.0, 0.068121, 0.0, 0.0, 0.0, 0.07182400000000001]
position_covariance_type: 2
---
header: 
  seq: 3367
  stamp: 
    secs: 1558789553
    nsecs: 422753394
  frame_id: "base_link"
status: 
  status: 0
  service: 1
latitude: 51.4824412
longitude: -0.2180452
altitude: 55.0035161418
position_covariance: [0.068121, 0.0, 0.0, 0.0, 0.068121, 0.0, 0.0, 0.0, 0.07182400000000001]
position_covariance_type: 2
---
header: 
  seq: 3368
  stamp: 
    secs: 1558789553
    nsecs: 522782177
  frame_id: "base_link"
status: 
  status: 0
  service: 1
latitude: 51.4824411
longitude: -0.2180454
altitude: 54.987516251
position_covariance: [0.08236899999999998, 0.0, 0.0, 0.0, 0.08236899999999998, 0.0, 0.0, 0.0, 0.094249]
position_covariance_type: 2
---
header: 
  seq: 3369
  stamp: 
    secs: 1558789553
    nsecs: 621473959
  frame_id: "base_link"
status: 
  status: 0
  service: 1
latitude: 51.4824411
longitude: -0.2180456
altitude: 54.9815164818
position_covariance: [0.08236899999999998, 0.0, 0.0, 0.0, 0.08236899999999998, 0.0, 0.0, 0.0, 0.094249]
position_covariance_type: 2
---
header: 
  seq: 3370
  stamp: 
    secs: 1558789553
    nsecs: 724726317
  frame_id: "base_link"
status: 
  status: 0
  service: 1
latitude: 51.4824411
longitude: -0.2180459
altitude: 54.991516828
position_covariance: [0.096721, 0.0, 0.0, 0.0, 0.096721, 0.0, 0.0, 0.0, 0.11560000000000002]
position_covariance_type: 2
---
header: 
  seq: 3371
  stamp: 
    secs: 1558789553
    nsecs: 824393387
  frame_id: "base_link"
status: 
  status: 0
  service: 1
latitude: 51.4824411
longitude: -0.2180461
altitude: 55.0045170588
position_covariance: [0.096721, 0.0, 0.0, 0.0, 0.096721, 0.0, 0.0, 0.0, 0.11560000000000002]
position_covariance_type: 2
---
header: 
  seq: 3372
  stamp: 
    secs: 1558789553
    nsecs: 923568425
  frame_id: "base_link"
status: 
  status: 0
  service: 1
latitude: 51.4824411
longitude: -0.2180462
altitude: 55.0135171743
position_covariance: [0.12460899999999998, 0.0, 0.0, 0.0, 0.12460899999999998, 0.0, 0.0, 0.0, 0.134689]
position_covariance_type: 2
---
header: 
  seq: 3373
  stamp: 
    secs: 1558789554
    nsecs:  23567040
  frame_id: "base_link"
status: 
  status: 0
  service: 1
latitude: 51.482441
longitude: -0.2180465
altitude: 55.0205173988
position_covariance: [0.12460899999999998, 0.0, 0.0, 0.0, 0.12460899999999998, 0.0, 0.0, 0.0, 0.134689]
position_covariance_type: 2
---
header: 
  seq: 3374
  stamp: 
    secs: 1558789554
    nsecs: 126426939
  frame_id: "base_link"
status: 
  status: 0
  service: 1
latitude: 51.482441
longitude: -0.2180467
altitude: 55.0285176297
position_covariance: [0.15288100000000002, 0.0, 0.0, 0.0, 0.15288100000000002, 0.0, 0.0, 0.0, 0.2025]
position_covariance_type: 2
---
header: 
  seq: 3375
  stamp: 
    secs: 1558789554
    nsecs: 222169114
  frame_id: "base_link"
status: 
  status: 0
  service: 1
latitude: 51.482441
longitude: -0.2180468
altitude: 55.0395177451
position_covariance: [0.15288100000000002, 0.0, 0.0, 0.0, 0.15288100000000002, 0.0, 0.0, 0.0, 0.2025]
position_covariance_type: 2
---
header: 
  seq: 3376
  stamp: 
    secs: 1558789554
    nsecs: 323565641
  frame_id: "base_link"
status: 
  status: 0
  service: 1
latitude: 51.482441
longitude: -0.2180469
altitude: 55.0505178605
position_covariance: [0.19980900000000001, 0.0, 0.0, 0.0, 0.19980900000000001, 0.0, 0.0, 0.0, 0.294849]
position_covariance_type: 2
---
header: 
  seq: 3377
  stamp: 
    secs: 1558789554
    nsecs: 424545258
  frame_id: "base_link"
status: 
  status: 0
  service: 1
latitude: 51.482441
longitude: -0.218047
altitude: 55.0675179759
position_covariance: [0.19980900000000001, 0.0, 0.0, 0.0, 0.19980900000000001, 0.0, 0.0, 0.0, 0.294849]
position_covariance_type: 2
---
header: 
  seq: 3378
  stamp: 
    secs: 1558789554
    nsecs: 524345037
  frame_id: "base_link"
status: 
  status: 0
  service: 1
latitude: 51.482441
longitude: -0.2180469
altitude: 55.0905178605
position_covariance: [0.251001, 0.0, 0.0, 0.0, 0.251001, 0.0, 0.0, 0.0, 0.407044]
position_covariance_type: 2
---
header: 
  seq: 3379
  stamp: 
    secs: 1558789554
    nsecs: 624429047
  frame_id: "base_link"
status: 
  status: 0
  service: 1
latitude: 51.4824411
longitude: -0.2180468
altitude: 55.1125178667
position_covariance: [0.251001, 0.0, 0.0, 0.0, 0.251001, 0.0, 0.0, 0.0, 0.407044]
position_covariance_type: 2
---
header: 
  seq: 3380
  stamp: 
    secs: 1558789554
    nsecs: 723695320
  frame_id: "base_link"
status: 
  status: 0
  service: 1
latitude: 51.4824412
longitude: -0.2180466
altitude: 55.1245177576
position_covariance: [0.292681, 0.0, 0.0, 0.0, 0.292681, 0.0, 0.0, 0.0, 0.534361]
position_covariance_type: 2
---
header: 
  seq: 3381
  stamp: 
    secs: 1558789554
    nsecs: 823993235
  frame_id: "base_link"
status: 
  status: 0
  service: 1
latitude: 51.4824413
longitude: -0.2180467
altitude: 55.1215179946
position_covariance: [0.292681, 0.0, 0.0, 0.0, 0.292681, 0.0, 0.0, 0.0, 0.534361]
position_covariance_type: 2
---
header: 
  seq: 3382
  stamp: 
    secs: 1558789554
    nsecs: 923598458
  frame_id: "base_link"
status: 
  status: 0
  service: 1
latitude: 51.4824414
longitude: -0.2180467
altitude: 55.1185181163
position_covariance: [0.3203559999999999, 0.0, 0.0, 0.0, 0.3203559999999999, 0.0, 0.0, 0.0, 0.521284]
position_covariance_type: 2
---
header: 
  seq: 3383
  stamp: 
    secs: 1558789555
    nsecs:  21343631
  frame_id: "base_link"
status: 
  status: 0
  service: 1
latitude: 51.4824416
longitude: -0.2180469
altitude: 55.1245185904
position_covariance: [0.3203559999999999, 0.0, 0.0, 0.0, 0.3203559999999999, 0.0, 0.0, 0.0, 0.521284]
position_covariance_type: 2
---
header: 
  seq: 3384
  stamp: 
    secs: 1558789555
    nsecs: 122145877
  frame_id: "base_link"
status: 
  status: 0
  service: 1
latitude: 51.4824419
longitude: -0.218047
altitude: 55.1365190708
position_covariance: [0.35046399999999994, 0.0, 0.0, 0.0, 0.35046399999999994, 0.0, 0.0, 0.0, 0.549081]
position_covariance_type: 2
---
header: 
  seq: 3385
  stamp: 
    secs: 1558789555
    nsecs: 225222943
  frame_id: "base_link"
status: 
  status: 0
  service: 1
latitude: 51.4824422
longitude: -0.2180472
altitude: 55.1535196666
position_covariance: [0.35046399999999994, 0.0, 0.0, 0.0, 0.35046399999999994, 0.0, 0.0, 0.0, 0.549081]
position_covariance_type: 2
---
header: 
  seq: 3386
  stamp: 
    secs: 1558789555
    nsecs: 322057911
  frame_id: "base_link"
status: 
  status: 0
  service: 1
latitude: 51.4824426
longitude: -0.2180474
altitude: 55.1745203841
position_covariance: [0.35046399999999994, 0.0, 0.0, 0.0, 0.35046399999999994, 0.0, 0.0, 0.0, 0.549081]
position_covariance_type: 2
---
header: 
  seq: 3387
  stamp: 
    secs: 1558789555
    nsecs: 424650182
  frame_id: "base_link"
status: 
  status: 0
  service: 1
latitude: 51.4824429
longitude: -0.2180476
altitude: 55.1955209799
position_covariance: [0.39690000000000003, 0.0, 0.0, 0.0, 0.39690000000000003, 0.0, 0.0, 0.0, 0.599076]
position_covariance_type: 2
---
header: 
  seq: 3388
  stamp: 
    secs: 1558789555
    nsecs: 523846449
  frame_id: "base_link"
status: 
  status: 0
  service: 1
latitude: 51.482443
longitude: -0.2180478
altitude: 55.2075213323
position_covariance: [0.44756100000000004, 0.0, 0.0, 0.0, 0.44756100000000004, 0.0, 0.0, 0.0, 0.6432040000000001]
position_covariance_type: 2
---
header: 
  seq: 3389
  stamp: 
    secs: 1558789555
    nsecs: 623041238
  frame_id: "base_link"
status: 
  status: 0
  service: 1
latitude: 51.4824432
longitude: -0.218048
altitude: 55.2165218065
position_covariance: [0.44756100000000004, 0.0, 0.0, 0.0, 0.44756100000000004, 0.0, 0.0, 0.0, 0.6432040000000001]
position_covariance_type: 2
---
header: 
  seq: 3390
  stamp: 
    secs: 1558789555
    nsecs: 723009122
  frame_id: "base_link"
status: 
  status: 0
  service: 1
latitude: 51.4824433
longitude: -0.2180482
altitude: 55.219522159
position_covariance: [0.47059600000000007, 0.0, 0.0, 0.0, 0.47059600000000007, 0.0, 0.0, 0.0, 0.6674889999999999]
position_covariance_type: 2
---
header: 
  seq: 3391
  stamp: 
    secs: 1558789555
    nsecs: 822085128
  frame_id: "base_link"
status: 
  status: 0
  service: 1
latitude: 51.4824435
longitude: -0.2180483
altitude: 55.2215225177
position_covariance: [0.47059600000000007, 0.0, 0.0, 0.0, 0.47059600000000007, 0.0, 0.0, 0.0, 0.6674889999999999]
position_covariance_type: 2
---
header: 
  seq: 3392
  stamp: 
    secs: 1558789555
    nsecs: 922394099
  frame_id: "base_link"
status: 
  status: 0
  service: 1
latitude: 51.4824437
longitude: -0.2180485
altitude: 55.2255229918
position_covariance: [0.391876, 0.0, 0.0, 0.0, 0.391876, 0.0, 0.0, 0.0, 0.5882890000000001]
position_covariance_type: 2
---
header: 
  seq: 3393
  stamp: 
    secs: 1558789556
    nsecs:  24745875
  frame_id: "base_link"
status: 
  status: 0
  service: 1
latitude: 51.4824438
longitude: -0.2180486
altitude: 55.2295232289
position_covariance: [0.391876, 0.0, 0.0, 0.0, 0.391876, 0.0, 0.0, 0.0, 0.5882890000000001]
position_covariance_type: 2
---
header: 
  seq: 3394
  stamp: 
    secs: 1558789556
    nsecs: 123659409
  frame_id: "base_link"
status: 
  status: 0
  service: 1
latitude: 51.4824439
longitude: -0.2180485
altitude: 55.2345232351
position_covariance: [0.351649, 0.0, 0.0, 0.0, 0.351649, 0.0, 0.0, 0.0, 0.544644]
position_covariance_type: 2
---
header: 
  seq: 3395
  stamp: 
    secs: 1558789556
    nsecs: 223919337
  frame_id: "base_link"
status: 
  status: 0
  service: 1
latitude: 51.4824441
longitude: -0.2180485
altitude: 55.2455234785
position_covariance: [0.351649, 0.0, 0.0, 0.0, 0.351649, 0.0, 0.0, 0.0, 0.544644]
position_covariance_type: 2
---
header: 
  seq: 3396
  stamp: 
    secs: 1558789556
    nsecs: 323583986
  frame_id: "base_link"
status: 
  status: 0
  service: 1
latitude: 51.4824443
longitude: -0.2180485
altitude: 55.2575237218
position_covariance: [0.351649, 0.0, 0.0, 0.0, 0.351649, 0.0, 0.0, 0.0, 0.544644]
position_covariance_type: 2
---
header: 
  seq: 3397
  stamp: 
    secs: 1558789556
    nsecs: 424400660
  frame_id: "base_link"
status: 
  status: 0
  service: 1
latitude: 51.4824443
longitude: -0.2180485
altitude: 55.2675237218
position_covariance: [0.34456899999999996, 0.0, 0.0, 0.0, 0.34456899999999996, 0.0, 0.0, 0.0, 0.564001]
position_covariance_type: 2
---
header: 
  seq: 3398
  stamp: 
    secs: 1558789556
    nsecs: 522407432
  frame_id: "base_link"
status: 
  status: 0
  service: 1
latitude: 51.4824444
longitude: -0.2180485
altitude: 55.2705238434
position_covariance: [0.36, 0.0, 0.0, 0.0, 0.36, 0.0, 0.0, 0.0, 0.6400000000000001]
position_covariance_type: 2
---
header: 
  seq: 3399
  stamp: 
    secs: 1558789556
    nsecs: 622129353
  frame_id: "base_link"
status: 
  status: 0
  service: 1
latitude: 51.4824444
longitude: -0.2180484
altitude: 55.268523728
position_covariance: [0.36, 0.0, 0.0, 0.0, 0.36, 0.0, 0.0, 0.0, 0.6400000000000001]
position_covariance_type: 2
---
header: 
  seq: 3400
  stamp: 
    secs: 1558789556
    nsecs: 721253956
  frame_id: "base_link"
status: 
  status: 0
  service: 1
latitude: 51.4824444
longitude: -0.2180483
altitude: 55.2675236126
position_covariance: [0.3721, 0.0, 0.0, 0.0, 0.3721, 0.0, 0.0, 0.0, 0.727609]
position_covariance_type: 2
---
header: 
  seq: 3401
  stamp: 
    secs: 1558789556
    nsecs: 824653601
  frame_id: "base_link"
status: 
  status: 0
  service: 1
latitude: 51.4824444
longitude: -0.2180481
altitude: 55.2625233818
position_covariance: [0.3721, 0.0, 0.0, 0.0, 0.3721, 0.0, 0.0, 0.0, 0.727609]
position_covariance_type: 2
---
header: 
  seq: 3402
  stamp: 
    secs: 1558789556
    nsecs: 924332193
  frame_id: "base_link"
status: 
  status: 0
  service: 1
latitude: 51.4824444
longitude: -0.2180479
altitude: 55.255523151
position_covariance: [0.34574399999999994, 0.0, 0.0, 0.0, 0.34574399999999994, 0.0, 0.0, 0.0, 0.710649]
position_covariance_type: 2
---
header: 
  seq: 3403
  stamp: 
    secs: 1558789557
    nsecs:  23675086
  frame_id: "base_link"
status: 
  status: 0
  service: 1
latitude: 51.4824443
longitude: -0.2180477
altitude: 55.2475227985
position_covariance: [0.34574399999999994, 0.0, 0.0, 0.0, 0.34574399999999994, 0.0, 0.0, 0.0, 0.710649]
position_covariance_type: 2
---
header: 
  seq: 3404
  stamp: 
    secs: 1558789557
    nsecs: 123354344
  frame_id: "base_link"
status: 
  status: 0
  service: 1
latitude: 51.4824442
longitude: -0.2180475
altitude: 55.239522446
position_covariance: [0.357604, 0.0, 0.0, 0.0, 0.357604, 0.0, 0.0, 0.0, 0.7310249999999999]
position_covariance_type: 2
---
header: 
  seq: 3405
  stamp: 
    secs: 1558789557
    nsecs: 223933654
  frame_id: "base_link"
status: 
  status: 0
  service: 1
latitude: 51.4824441
longitude: -0.2180473
altitude: 55.2285220935
position_covariance: [0.357604, 0.0, 0.0, 0.0, 0.357604, 0.0, 0.0, 0.0, 0.7310249999999999]
position_covariance_type: 2
---
header: 
  seq: 3406
  stamp: 
    secs: 1558789557
    nsecs: 322967373
  frame_id: "base_link"
status: 
  status: 0
  service: 1
latitude: 51.482444
longitude: -0.2180472
altitude: 55.2195218565
position_covariance: [0.37332099999999996, 0.0, 0.0, 0.0, 0.37332099999999996, 0.0, 0.0, 0.0, 0.7464959999999999]
position_covariance_type: 2
---
header: 
  seq: 3407
  stamp: 
    secs: 1558789557
    nsecs: 422386641
  frame_id: "base_link"
status: 
  status: 0
  service: 1
latitude: 51.4824438
longitude: -0.2180471
altitude: 55.2155214977
position_covariance: [0.37332099999999996, 0.0, 0.0, 0.0, 0.37332099999999996, 0.0, 0.0, 0.0, 0.7464959999999999]
position_covariance_type: 2
---
header: 
  seq: 3408
  stamp: 
    secs: 1558789557
    nsecs: 522142460
  frame_id: "base_link"
status: 
  status: 0
  service: 1
latitude: 51.4824436
longitude: -0.2180469
altitude: 55.2185210236
position_covariance: [0.376996, 0.0, 0.0, 0.0, 0.376996, 0.0, 0.0, 0.0, 0.748225]
position_covariance_type: 2
---
header: 
  seq: 3409
  stamp: 
    secs: 1558789557
    nsecs: 624478178
  frame_id: "base_link"
status: 
  status: 0
  service: 1
latitude: 51.4824433
longitude: -0.2180466
altitude: 55.2225203124
position_covariance: [0.376996, 0.0, 0.0, 0.0, 0.376996, 0.0, 0.0, 0.0, 0.748225]
position_covariance_type: 2
---
header: 
  seq: 3410
  stamp: 
    secs: 1558789557
    nsecs: 723779535
  frame_id: "base_link"
status: 
  status: 0
  service: 1
latitude: 51.4824431
longitude: -0.2180464
altitude: 55.2215198382
position_covariance: [0.380689, 0.0, 0.0, 0.0, 0.380689, 0.0, 0.0, 0.0, 0.758641]
position_covariance_type: 2
---
header: 
  seq: 3411
  stamp: 
    secs: 1558789557
    nsecs: 823135854
  frame_id: "base_link"
status: 
  status: 0
  service: 1
latitude: 51.4824428
longitude: -0.2180462
altitude: 55.2175192424
position_covariance: [0.380689, 0.0, 0.0, 0.0, 0.380689, 0.0, 0.0, 0.0, 0.758641]
position_covariance_type: 2
---
header: 
  seq: 3412
  stamp: 
    secs: 1558789557
    nsecs: 922883735
  frame_id: "base_link"
status: 
  status: 0
  service: 1
latitude: 51.4824425
longitude: -0.2180459
altitude: 55.2035185312
position_covariance: [0.281961, 0.0, 0.0, 0.0, 0.281961, 0.0, 0.0, 0.0, 0.556516]
position_covariance_type: 2
---
header: 
  seq: 3413
  stamp: 
    secs: 1558789558
    nsecs:  23134556
  frame_id: "base_link"
status: 
  status: 0
  service: 1
latitude: 51.4824423
longitude: -0.2180456
altitude: 55.1745179417
position_covariance: [0.281961, 0.0, 0.0, 0.0, 0.281961, 0.0, 0.0, 0.0, 0.556516]
position_covariance_type: 2
---
header: 
  seq: 3414
  stamp: 
    secs: 1558789558
    nsecs: 122370098
  frame_id: "base_link"
status: 
  status: 0
  service: 1
latitude: 51.4824421
longitude: -0.2180455
altitude: 55.148517583
position_covariance: [0.281961, 0.0, 0.0, 0.0, 0.281961, 0.0, 0.0, 0.0, 0.556516]
position_covariance_type: 2
---
header: 
  seq: 3415
  stamp: 
    secs: 1558789558
    nsecs: 222013149
  frame_id: "base_link"
status: 
  status: 0
  service: 1
latitude: 51.4824419
longitude: -0.2180455
altitude: 55.1365173396
position_covariance: [0.264196, 0.0, 0.0, 0.0, 0.264196, 0.0, 0.0, 0.0, 0.5505639999999999]
position_covariance_type: 2
---
header: 
  seq: 3416
  stamp: 
    secs: 1558789558
    nsecs: 322084425
  frame_id: "base_link"
status: 
  status: 0
  service: 1
latitude: 51.4824418
longitude: -0.2180454
altitude: 55.1385171026
position_covariance: [0.264196, 0.0, 0.0, 0.0, 0.264196, 0.0, 0.0, 0.0, 0.5505639999999999]
position_covariance_type: 2
---
header: 
  seq: 3417
  stamp: 
    secs: 1558789558
    nsecs: 424136910
  frame_id: "base_link"
status: 
  status: 0
  service: 1
latitude: 51.4824417
longitude: -0.2180454
altitude: 55.1425169809
position_covariance: [0.259081, 0.0, 0.0, 0.0, 0.259081, 0.0, 0.0, 0.0, 0.527076]
position_covariance_type: 2
---
header: 
  seq: 3418
  stamp: 
    secs: 1558789558
    nsecs: 523434057
  frame_id: "base_link"
status: 
  status: 0
  service: 1
latitude: 51.4824415
longitude: -0.2180453
altitude: 55.1315166222
position_covariance: [0.259081, 0.0, 0.0, 0.0, 0.259081, 0.0, 0.0, 0.0, 0.5929]
position_covariance_type: 2
---
header: 
  seq: 3419
  stamp: 
    secs: 1558789558
    nsecs: 623729567
  frame_id: "base_link"
status: 
  status: 0
  service: 1
latitude: 51.4824412
longitude: -0.2180453
altitude: 55.1245162572
position_covariance: [0.259081, 0.0, 0.0, 0.0, 0.259081, 0.0, 0.0, 0.0, 0.5929]
position_covariance_type: 2
---
header: 
  seq: 3420
  stamp: 
    secs: 1558789558
    nsecs: 723239864
  frame_id: "base_link"
status: 
  status: 0
  service: 1
latitude: 51.4824411
longitude: -0.2180452
altitude: 55.1275160201
position_covariance: [0.273529, 0.0, 0.0, 0.0, 0.273529, 0.0, 0.0, 0.0, 0.662596]
position_covariance_type: 2
---
header: 
  seq: 3421
  stamp: 
    secs: 1558789558
    nsecs: 822849202
  frame_id: "base_link"
status: 
  status: 0
  service: 1
latitude: 51.482441
longitude: -0.2180451
altitude: 55.1435157831
position_covariance: [0.273529, 0.0, 0.0, 0.0, 0.273529, 0.0, 0.0, 0.0, 0.662596]
position_covariance_type: 2
---
header: 
  seq: 3422
  stamp: 
    secs: 1558789558
    nsecs: 922054770
  frame_id: "base_link"
status: 
  status: 0
  service: 1
latitude: 51.4824409
longitude: -0.2180451
altitude: 55.1545156614
position_covariance: [0.294849, 0.0, 0.0, 0.0, 0.294849, 0.0, 0.0, 0.0, 0.6480250000000001]
position_covariance_type: 2
---
header: 
  seq: 3423
  stamp: 
    secs: 1558789559
    nsecs:  21638785
  frame_id: "base_link"
status: 
  status: 0
  service: 1
latitude: 51.4824407
longitude: -0.2180451
altitude: 55.1585154181
position_covariance: [0.294849, 0.0, 0.0, 0.0, 0.294849, 0.0, 0.0, 0.0, 0.6480250000000001]
position_covariance_type: 2
---
header: 
  seq: 3424
  stamp: 
    secs: 1558789559
    nsecs: 122446783
  frame_id: "base_link"
status: 
  status: 0
  service: 1
latitude: 51.4824406
longitude: -0.218045
altitude: 55.161515181
position_covariance: [0.3147210000000001, 0.0, 0.0, 0.0, 0.3147210000000001, 0.0, 0.0, 0.0, 0.6658559999999999]
position_covariance_type: 2
---
header: 
  seq: 3425
  stamp: 
    secs: 1558789559
    nsecs: 224357313
  frame_id: "base_link"
status: 
  status: 0
  service: 1
latitude: 51.4824403
longitude: -0.218045
altitude: 55.1565148161
position_covariance: [0.3147210000000001, 0.0, 0.0, 0.0, 0.3147210000000001, 0.0, 0.0, 0.0, 0.6658559999999999]
position_covariance_type: 2
---
header: 
  seq: 3426
  stamp: 
    secs: 1558789559
    nsecs: 321651568
  frame_id: "base_link"
status: 
  status: 0
  service: 1
latitude: 51.48244
longitude: -0.2180449
altitude: 55.1375143357
position_covariance: [0.3271839999999999, 0.0, 0.0, 0.0, 0.3271839999999999, 0.0, 0.0, 0.0, 0.685584]
position_covariance_type: 2
---
header: 
  seq: 3427
  stamp: 
    secs: 1558789559
    nsecs: 423204774
  frame_id: "base_link"
status: 
  status: 0
  service: 1
latitude: 51.4824397
longitude: -0.2180447
altitude: 55.1085137399
position_covariance: [0.3271839999999999, 0.0, 0.0, 0.0, 0.3271839999999999, 0.0, 0.0, 0.0, 0.685584]
position_covariance_type: 2
---
header: 
  seq: 3428
  stamp: 
    secs: 1558789559
    nsecs: 524057751
  frame_id: "base_link"
status: 
  status: 0
  service: 1
latitude: 51.4824394
longitude: -0.2180445
altitude: 55.0815131441
position_covariance: [0.3271839999999999, 0.0, 0.0, 0.0, 0.3271839999999999, 0.0, 0.0, 0.0, 0.685584]
position_covariance_type: 2
---
header: 
  seq: 3429
  stamp: 
    secs: 1558789559
    nsecs: 622076475
  frame_id: "base_link"
status: 
  status: 0
  service: 1
latitude: 51.4824392
longitude: -0.2180442
altitude: 55.0485125545
position_covariance: [0.32604099999999997, 0.0, 0.0, 0.0, 0.32604099999999997, 0.0, 0.0, 0.0, 0.6561000000000001]
position_covariance_type: 2
---
header: 
  seq: 3430
  stamp: 
    secs: 1558789559
    nsecs: 726348844
  frame_id: "base_link"
status: 
  status: 0
  service: 1
latitude: 51.4824392
longitude: -0.218044
altitude: 55.0185123237
position_covariance: [0.32604099999999997, 0.0, 0.0, 0.0, 0.32604099999999997, 0.0, 0.0, 0.0, 0.6561000000000001]
position_covariance_type: 2
---
header: 
  seq: 3431
  stamp: 
    secs: 1558789559
    nsecs: 825387620
  frame_id: "base_link"
status: 
  status: 0
  service: 1
latitude: 51.4824391
longitude: -0.218044
altitude: 54.997512202
position_covariance: [0.31024900000000005, 0.0, 0.0, 0.0, 0.31024900000000005, 0.0, 0.0, 0.0, 0.6416010000000001]
position_covariance_type: 2
---
header: 
  seq: 3432
  stamp: 
    secs: 1558789559
    nsecs: 922338945
  frame_id: "base_link"
status: 
  status: 0
  service: 1
latitude: 51.482439
longitude: -0.2180441
altitude: 54.9885121958
position_covariance: [0.31024900000000005, 0.0, 0.0, 0.0, 0.31024900000000005, 0.0, 0.0, 0.0, 0.6416010000000001]
position_covariance_type: 2
---
header: 
  seq: 3433
  stamp: 
    secs: 1558789560
    nsecs:  21937953
  frame_id: "base_link"
status: 
  status: 0
  service: 1
latitude: 51.4824388
longitude: -0.2180442
altitude: 54.9755120679
position_covariance: [0.358801, 0.0, 0.0, 0.0, 0.358801, 0.0, 0.0, 0.0, 0.573049]
position_covariance_type: 2
---
header: 
  seq: 3434
  stamp: 
    secs: 1558789560
    nsecs: 121677401
  frame_id: "base_link"
status: 
  status: 0
  service: 1
latitude: 51.4824387
longitude: -0.2180444
altitude: 54.9545121771
position_covariance: [0.358801, 0.0, 0.0, 0.0, 0.358801, 0.0, 0.0, 0.0, 0.573049]
position_covariance_type: 2
---
header: 
  seq: 3435
  stamp: 
    secs: 1558789560
    nsecs: 223841777
  frame_id: "base_link"
status: 
  status: 0
  service: 1
latitude: 51.4824385
longitude: -0.2180447
altitude: 54.94451228
position_covariance: [0.44222500000000003, 0.0, 0.0, 0.0, 0.44222500000000003, 0.0, 0.0, 0.0, 0.522729]
position_covariance_type: 2
---
header: 
  seq: 3436
  stamp: 
    secs: 1558789560
    nsecs: 323015973
  frame_id: "base_link"
status: 
  status: 0
  service: 1
latitude: 51.4824383
longitude: -0.218045
altitude: 54.9345123829
position_covariance: [0.44222500000000003, 0.0, 0.0, 0.0, 0.44222500000000003, 0.0, 0.0, 0.0, 0.522729]
position_covariance_type: 2
---
header: 
  seq: 3437
  stamp: 
    secs: 1558789560
    nsecs: 423171692
  frame_id: "base_link"
status: 
  status: 0
  service: 1
latitude: 51.4824381
longitude: -0.2180454
altitude: 54.9275126012
position_covariance: [0.44222500000000003, 0.0, 0.0, 0.0, 0.44222500000000003, 0.0, 0.0, 0.0, 0.47748099999999993]
position_covariance_type: 2
---
header: 
  seq: 3438
  stamp: 
    secs: 1558789560
    nsecs: 521610605
  frame_id: "base_link"
status: 
  status: 0
  service: 1
latitude: 51.4824379
longitude: -0.2180457
altitude: 54.9205127041
position_covariance: [0.44222500000000003, 0.0, 0.0, 0.0, 0.44222500000000003, 0.0, 0.0, 0.0, 0.47748099999999993]
position_covariance_type: 2
---
header: 
  seq: 3439
  stamp: 
    secs: 1558789560
    nsecs: 624338015
  frame_id: "base_link"
status: 
  status: 0
  service: 1
latitude: 51.4824377
longitude: -0.2180461
altitude: 54.9105129225
position_covariance: [0.403225, 0.0, 0.0, 0.0, 0.403225, 0.0, 0.0, 0.0, 0.4624000000000001]
position_covariance_type: 2
---
header: 
  seq: 3440
  stamp: 
    secs: 1558789560
    nsecs: 721223108
  frame_id: "base_link"
status: 
  status: 0
  service: 1
latitude: 51.4824376
longitude: -0.2180465
altitude: 54.9015132624
position_covariance: [0.403225, 0.0, 0.0, 0.0, 0.403225, 0.0, 0.0, 0.0, 0.4624000000000001]
position_covariance_type: 2
---
header: 
  seq: 3441
  stamp: 
    secs: 1558789560
    nsecs: 823742421
  frame_id: "base_link"
status: 
  status: 0
  service: 1
latitude: 51.4824375
longitude: -0.2180468
altitude: 54.892513487
position_covariance: [0.385641, 0.0, 0.0, 0.0, 0.385641, 0.0, 0.0, 0.0, 0.45562500000000006]
position_covariance_type: 2
---
header: 
  seq: 3442
  stamp: 
    secs: 1558789560
    nsecs: 923096480
  frame_id: "base_link"
status: 
  status: 0
  service: 1
latitude: 51.4824374
longitude: -0.2180472
altitude: 54.884513827
position_covariance: [0.37576899999999996, 0.0, 0.0, 0.0, 0.37576899999999996, 0.0, 0.0, 0.0, 0.524176]
position_covariance_type: 2
---
header: 
  seq: 3443
  stamp: 
    secs: 1558789561
    nsecs:  23279256
  frame_id: "base_link"
status: 
  status: 0
  service: 1
latitude: 51.4824373
longitude: -0.2180476
altitude: 54.872514167
position_covariance: [0.37576899999999996, 0.0, 0.0, 0.0, 0.37576899999999996, 0.0, 0.0, 0.0, 0.524176]
position_covariance_type: 2
---
header: 
  seq: 3444
  stamp: 
    secs: 1558789561
    nsecs: 122196509
  frame_id: "base_link"
status: 
  status: 0
  service: 1
latitude: 51.4824372
longitude: -0.2180479
altitude: 54.8665143916
position_covariance: [0.40195600000000004, 0.0, 0.0, 0.0, 0.40195600000000004, 0.0, 0.0, 0.0, 0.6561000000000001]
position_covariance_type: 2
---
header: 
  seq: 3445
  stamp: 
    secs: 1558789561
    nsecs: 221471988
  frame_id: "base_link"
status: 
  status: 0
  service: 1
latitude: 51.4824372
longitude: -0.2180482
altitude: 54.8595147378
position_covariance: [0.40195600000000004, 0.0, 0.0, 0.0, 0.40195600000000004, 0.0, 0.0, 0.0, 0.6561000000000001]
position_covariance_type: 2
---
header: 
  seq: 3446
  stamp: 
    secs: 1558789561
    nsecs: 322153973
  frame_id: "base_link"
status: 
  status: 0
  service: 1
latitude: 51.4824372
longitude: -0.2180486
altitude: 54.8505151994
position_covariance: [0.40195600000000004, 0.0, 0.0, 0.0, 0.40195600000000004, 0.0, 0.0, 0.0, 0.6561000000000001]
position_covariance_type: 2
---
header: 
  seq: 3447
  stamp: 
    secs: 1558789561
    nsecs: 424257729
  frame_id: "base_link"
status: 
  status: 0
  service: 1
latitude: 51.4824373
longitude: -0.218049
altitude: 54.8435157827
position_covariance: [0.42250000000000004, 0.0, 0.0, 0.0, 0.42250000000000004, 0.0, 0.0, 0.0, 0.813604]
position_covariance_type: 2
---
header: 
  seq: 3448
  stamp: 
    secs: 1558789561
    nsecs: 521474813
  frame_id: "base_link"
status: 
  status: 0
  service: 1
latitude: 51.4824373
longitude: -0.2180493
altitude: 54.835516129
position_covariance: [0.44488900000000003, 0.0, 0.0, 0.0, 0.44488900000000003, 0.0, 0.0, 0.0, 0.976144]
position_covariance_type: 2
---
header: 
  seq: 3449
  stamp: 
    secs: 1558789561
    nsecs: 623793622
  frame_id: "base_link"
status: 
  status: 0
  service: 1
latitude: 51.4824374
longitude: -0.2180498
altitude: 54.8275168277
position_covariance: [0.44488900000000003, 0.0, 0.0, 0.0, 0.44488900000000003, 0.0, 0.0, 0.0, 0.976144]
position_covariance_type: 2
---
header: 
  seq: 3450
  stamp: 
    secs: 1558789561
    nsecs: 723234710
  frame_id: "base_link"
status: 
  status: 0
  service: 1
latitude: 51.4824374
longitude: -0.2180502
altitude: 54.8225172893
position_covariance: [0.44488900000000003, 0.0, 0.0, 0.0, 0.44488900000000003, 0.0, 0.0, 0.0, 0.976144]
position_covariance_type: 2
---
header: 
  seq: 3451
  stamp: 
    secs: 1558789561
    nsecs: 825169951
  frame_id: "base_link"
status: 
  status: 0
  service: 1
latitude: 51.4824375
longitude: -0.2180507
altitude: 54.8155179881
position_covariance: [0.47059600000000007, 0.0, 0.0, 0.0, 0.47059600000000007, 0.0, 0.0, 0.0, 1.1577760000000001]
position_covariance_type: 2
---
header: 
  seq: 3452
  stamp: 
    secs: 1558789561
    nsecs: 921968600
  frame_id: "base_link"
status: 
  status: 0
  service: 1
latitude: 51.4824376
longitude: -0.2180511
altitude: 54.8075185714
position_covariance: [0.5041, 0.0, 0.0, 0.0, 0.5041, 0.0, 0.0, 0.0, 1.190281]
position_covariance_type: 2
---
header: 
  seq: 3453
  stamp: 
    secs: 1558789562
    nsecs:  24199239
  frame_id: "base_link"
status: 
  status: 0
  service: 1
latitude: 51.4824377
longitude: -0.2180515
altitude: 54.8015191547
position_covariance: [0.5041, 0.0, 0.0, 0.0, 0.5041, 0.0, 0.0, 0.0, 1.190281]
position_covariance_type: 2
---
header: 
  seq: 3454
  stamp: 
    secs: 1558789562
    nsecs: 121485289
  frame_id: "base_link"
status: 
  status: 0
  service: 1
latitude: 51.4824378
longitude: -0.2180519
altitude: 54.798519738
position_covariance: [0.559504, 0.0, 0.0, 0.0, 0.559504, 0.0, 0.0, 0.0, 1.256641]
position_covariance_type: 2
---
header: 
  seq: 3455
  stamp: 
    secs: 1558789562
    nsecs: 225020165
  frame_id: "base_link"
status: 
  status: 0
  service: 1
latitude: 51.482438
longitude: -0.2180523
altitude: 54.7955204429
position_covariance: [0.559504, 0.0, 0.0, 0.0, 0.559504, 0.0, 0.0, 0.0, 1.256641]
position_covariance_type: 2
---
header: 
  seq: 3456
  stamp: 
    secs: 1558789562
    nsecs: 323940986
  frame_id: "base_link"
status: 
  status: 0
  service: 1
latitude: 51.4824381
longitude: -0.2180528
altitude: 54.7915211416
position_covariance: [0.6241000000000001, 0.0, 0.0, 0.0, 0.6241000000000001, 0.0, 0.0, 0.0, 1.306449]
position_covariance_type: 2
---
header: 
  seq: 3457
  stamp: 
    secs: 1558789562
    nsecs: 424376706
  frame_id: "base_link"
status: 
  status: 0
  service: 1
latitude: 51.4824382
longitude: -0.2180532
altitude: 54.7925217249
position_covariance: [0.6241000000000001, 0.0, 0.0, 0.0, 0.6241000000000001, 0.0, 0.0, 0.0, 1.306449]
position_covariance_type: 2
---
header: 
  seq: 3458
  stamp: 
    secs: 1558789562
    nsecs: 523294170
  frame_id: "base_link"
status: 
  status: 0
  service: 1
latitude: 51.4824383
longitude: -0.2180534
altitude: 54.7955220774
position_covariance: [0.6432040000000001, 0.0, 0.0, 0.0, 0.6432040000000001, 0.0, 0.0, 0.0, 1.3782759999999998]
position_covariance_type: 2
---
header: 
  seq: 3459
  stamp: 
    secs: 1558789562
    nsecs: 622153239
  frame_id: "base_link"
status: 
  status: 0
  service: 1
latitude: 51.4824383
longitude: -0.2180536
altitude: 54.7995223083
position_covariance: [0.6432040000000001, 0.0, 0.0, 0.0, 0.6432040000000001, 0.0, 0.0, 0.0, 1.3782759999999998]
position_covariance_type: 2
---
header: 
  seq: 3460
  stamp: 
    secs: 1558789562
    nsecs: 722768185
  frame_id: "base_link"
status: 
  status: 0
  service: 1
latitude: 51.4824384
longitude: -0.2180539
altitude: 54.8035227761
position_covariance: [0.6889, 0.0, 0.0, 0.0, 0.6889, 0.0, 0.0, 0.0, 1.468944]
position_covariance_type: 2
---
header: 
  seq: 3461
  stamp: 
    secs: 1558789562
    nsecs: 822061204
  frame_id: "base_link"
status: 
  status: 0
  service: 1
latitude: 51.4824385
longitude: -0.218054
altitude: 54.8055230132
position_covariance: [0.6889, 0.0, 0.0, 0.0, 0.6889, 0.0, 0.0, 0.0, 1.468944]
position_covariance_type: 2
---
header: 
  seq: 3462
  stamp: 
    secs: 1558789562
    nsecs: 924342147
  frame_id: "base_link"
status: 
  status: 0
  service: 1
latitude: 51.4824386
longitude: -0.2180542
altitude: 54.8075233657
position_covariance: [0.6288490000000001, 0.0, 0.0, 0.0, 0.6288490000000001, 0.0, 0.0, 0.0, 1.373584]
position_covariance_type: 2
---
header: 
  seq: 3463
  stamp: 
    secs: 1558789563
    nsecs:  24665486
  frame_id: "base_link"
status: 
  status: 0
  service: 1
latitude: 51.4824387
longitude: -0.2180542
altitude: 54.8135234874
position_covariance: [0.6288490000000001, 0.0, 0.0, 0.0, 0.6288490000000001, 0.0, 0.0, 0.0, 1.373584]
position_covariance_type: 2
---
header: 
  seq: 3464
  stamp: 
    secs: 1558789563
    nsecs: 124163704
  frame_id: "base_link"
status: 
  status: 0
  service: 1
latitude: 51.4824387
longitude: -0.2180542
altitude: 54.8195234874
position_covariance: [0.6658559999999999, 0.0, 0.0, 0.0, 0.6658559999999999, 0.0, 0.0, 0.0, 1.334025]
position_covariance_type: 2
---
header: 
  seq: 3465
  stamp: 
    secs: 1558789563
    nsecs: 223036465
  frame_id: "base_link"
status: 
  status: 0
  service: 1
latitude: 51.4824388
longitude: -0.2180543
altitude: 54.8235237244
position_covariance: [0.6658559999999999, 0.0, 0.0, 0.0, 0.6658559999999999, 0.0, 0.0, 0.0, 1.334025]
position_covariance_type: 2
---
header: 
  seq: 3466
  stamp: 
    secs: 1558789563
    nsecs: 323313968
  frame_id: "base_link"
status: 
  status: 0
  service: 1
latitude: 51.4824389
longitude: -0.2180544
altitude: 54.8285239615
position_covariance: [0.698896, 0.0, 0.0, 0.0, 0.698896, 0.0, 0.0, 0.0, 1.4957290000000003]
position_covariance_type: 2
---
header: 
  seq: 3467
  stamp: 
    secs: 1558789563
    nsecs: 422214113
  frame_id: "base_link"
status: 
  status: 0
  service: 1
latitude: 51.482439
longitude: -0.2180546
altitude: 54.830524314
position_covariance: [0.698896, 0.0, 0.0, 0.0, 0.698896, 0.0, 0.0, 0.0, 1.4957290000000003]
position_covariance_type: 2
---
header: 
  seq: 3468
  stamp: 
    secs: 1558789563
    nsecs: 523040258
  frame_id: "base_link"
status: 
  status: 0
  service: 1
latitude: 51.4824392
longitude: -0.2180549
altitude: 54.8355249035
position_covariance: [0.7157159999999999, 0.0, 0.0, 0.0, 0.7157159999999999, 0.0, 0.0, 0.0, 1.679616]
position_covariance_type: 2
---
header: 
  seq: 3469
  stamp: 
    secs: 1558789563
    nsecs: 621493171
  frame_id: "base_link"
status: 
  status: 0
  service: 1
latitude: 51.4824394
longitude: -0.2180551
altitude: 54.8395253777
position_covariance: [0.7157159999999999, 0.0, 0.0, 0.0, 0.7157159999999999, 0.0, 0.0, 0.0, 1.679616]
position_covariance_type: 2
---
header: 
  seq: 3470
  stamp: 
    secs: 1558789563
    nsecs: 721910385
  frame_id: "base_link"
status: 
  status: 0
  service: 1
latitude: 51.4824395
longitude: -0.2180553
altitude: 54.8395257302
position_covariance: [0.748225, 0.0, 0.0, 0.0, 0.748225, 0.0, 0.0, 0.0, 1.766241]
position_covariance_type: 2
---
header: 
  seq: 3471
  stamp: 
    secs: 1558789563
    nsecs: 824727436
  frame_id: "base_link"
status: 
  status: 0
  service: 1
latitude: 51.4824397
longitude: -0.2180554
altitude: 54.8385260889
position_covariance: [0.748225, 0.0, 0.0, 0.0, 0.748225, 0.0, 0.0, 0.0, 1.766241]
position_covariance_type: 2
---
header: 
  seq: 3472
  stamp: 
    secs: 1558789563
    nsecs: 924170714
  frame_id: "base_link"
status: 
  status: 0
  service: 1
latitude: 51.4824398
longitude: -0.2180555
altitude: 54.838526326
position_covariance: [0.811801, 0.0, 0.0, 0.0, 0.811801, 0.0, 0.0, 0.0, 1.890625]
position_covariance_type: 2
---
header: 
  seq: 3473
  stamp: 
    secs: 1558789564
    nsecs:  24938751
  frame_id: "base_link"
status: 
  status: 0
  service: 1
latitude: 51.4824399
longitude: -0.2180557
altitude: 54.8405266784
position_covariance: [0.811801, 0.0, 0.0, 0.0, 0.811801, 0.0, 0.0, 0.0, 1.890625]
position_covariance_type: 2
---
header: 
  seq: 3474
  stamp: 
    secs: 1558789564
    nsecs: 123135093
  frame_id: "base_link"
status: 
  status: 0
  service: 1
latitude: 51.48244
longitude: -0.2180558
altitude: 54.8405269155
position_covariance: [0.8574760000000001, 0.0, 0.0, 0.0, 0.8574760000000001, 0.0, 0.0, 0.0, 2.0164]
position_covariance_type: 2
---
header: 
  seq: 3475
  stamp: 
    secs: 1558789564
    nsecs: 222329109
  frame_id: "base_link"
status: 
  status: 0
  service: 1
latitude: 51.4824401
longitude: -0.218056
altitude: 54.835527268
position_covariance: [0.8574760000000001, 0.0, 0.0, 0.0, 0.8574760000000001, 0.0, 0.0, 0.0, 2.0164]
position_covariance_type: 2
---
header: 
  seq: 3476
  stamp: 
    secs: 1558789564
    nsecs: 323303870
  frame_id: "base_link"
status: 
  status: 0
  service: 1
latitude: 51.4824402
longitude: -0.2180564
altitude: 54.8315278513
position_covariance: [0.898704, 0.0, 0.0, 0.0, 0.898704, 0.0, 0.0, 0.0, 2.1315999999999997]
position_covariance_type: 2
---
header: 
  seq: 3477
  stamp: 
    secs: 1558789564
    nsecs: 425186545
  frame_id: "base_link"
status: 
  status: 0
  service: 1
latitude: 51.4824403
longitude: -0.2180566
altitude: 54.8285282038
position_covariance: [0.898704, 0.0, 0.0, 0.0, 0.898704, 0.0, 0.0, 0.0, 2.1315999999999997]
position_covariance_type: 2
---
header: 
  seq: 3478
  stamp: 
    secs: 1558789564
    nsecs: 521094169
  frame_id: "base_link"
status: 
  status: 0
  service: 1
latitude: 51.4824404
longitude: -0.2180568
altitude: 54.8255285563
position_covariance: [0.933156, 0.0, 0.0, 0.0, 0.933156, 0.0, 0.0, 0.0, 2.2470010000000005]
position_covariance_type: 2
---
header: 
  seq: 3479
  stamp: 
    secs: 1558789564
    nsecs: 623221535
  frame_id: "base_link"
status: 
  status: 0
  service: 1
latitude: 51.4824405
longitude: -0.2180571
altitude: 54.8185290242
position_covariance: [0.933156, 0.0, 0.0, 0.0, 0.933156, 0.0, 0.0, 0.0, 2.2470010000000005]
position_covariance_type: 2
---
header: 
  seq: 3480
  stamp: 
    secs: 1558789564
    nsecs: 721306241
  frame_id: "base_link"
status: 
  status: 0
  service: 1
latitude: 51.4824406
longitude: -0.2180573
altitude: 54.8115293766
position_covariance: [0.964324, 0.0, 0.0, 0.0, 0.964324, 0.0, 0.0, 0.0, 2.359296]
position_covariance_type: 2
---
header: 
  seq: 3481
  stamp: 
    secs: 1558789564
    nsecs: 823819040
  frame_id: "base_link"
status: 
  status: 0
  service: 1
latitude: 51.4824406
longitude: -0.2180575
altitude: 54.8065296075
position_covariance: [0.964324, 0.0, 0.0, 0.0, 0.964324, 0.0, 0.0, 0.0, 2.359296]
position_covariance_type: 2
---
header: 
  seq: 3482
  stamp: 
    secs: 1558789564
    nsecs: 922442534
  frame_id: "base_link"
status: 
  status: 0
  service: 1
latitude: 51.4824406
longitude: -0.2180576
altitude: 54.7995297229
position_covariance: [1.0020009999999997, 0.0, 0.0, 0.0, 1.0020009999999997, 0.0, 0.0, 0.0, 2.468041]
position_covariance_type: 2
---
header: 
  seq: 3483
  stamp: 
    secs: 1558789565
    nsecs:  22375544
  frame_id: "base_link"
status: 
  status: 0
  service: 1
latitude: 51.4824406
longitude: -0.2180578
altitude: 54.7885299537
position_covariance: [1.0020009999999997, 0.0, 0.0, 0.0, 1.0020009999999997, 0.0, 0.0, 0.0, 2.468041]
position_covariance_type: 2
---
header: 
  seq: 3484
  stamp: 
    secs: 1558789565
    nsecs: 122179964
  frame_id: "base_link"
status: 
  status: 0
  service: 1
latitude: 51.4824406
longitude: -0.218058
altitude: 54.7775301845
position_covariance: [1.0020009999999997, 0.0, 0.0, 0.0, 1.0020009999999997, 0.0, 0.0, 0.0, 2.468041]
position_covariance_type: 2
---
header: 
  seq: 3485
  stamp: 
    secs: 1558789565
    nsecs: 220975698
  frame_id: "base_link"
status: 
  status: 0
  service: 1
latitude: 51.4824407
longitude: -0.2180582
altitude: 54.769530537
position_covariance: [1.036324, 0.0, 0.0, 0.0, 1.036324, 0.0, 0.0, 0.0, 2.5664040000000004]
position_covariance_type: 2
---
header: 
  seq: 3486
  stamp: 
    secs: 1558789565
    nsecs: 321249774
  frame_id: "base_link"
status: 
  status: 0
  service: 1
latitude: 51.4824407
longitude: -0.2180585
altitude: 54.7635308833
position_covariance: [1.065024, 0.0, 0.0, 0.0, 1.065024, 0.0, 0.0, 0.0, 2.6699559999999996]
position_covariance_type: 2
---
header: 
  seq: 3487
  stamp: 
    secs: 1558789565
    nsecs: 424065727
  frame_id: "base_link"
status: 
  status: 0
  service: 1
latitude: 51.4824407
longitude: -0.2180587
altitude: 54.7595311141
position_covariance: [1.065024, 0.0, 0.0, 0.0, 1.065024, 0.0, 0.0, 0.0, 2.6699559999999996]
position_covariance_type: 2
---
header: 
  seq: 3488
  stamp: 
    secs: 1558789565
    nsecs: 522815346
  frame_id: "base_link"
status: 
  status: 0
  service: 1
latitude: 51.4824408
longitude: -0.2180589
altitude: 54.7585314666
position_covariance: [1.094116, 0.0, 0.0, 0.0, 1.094116, 0.0, 0.0, 0.0, 2.778889]
position_covariance_type: 2
---
header: 
  seq: 3489
  stamp: 
    secs: 1558789565
    nsecs: 623249784
  frame_id: "base_link"
status: 
  status: 0
  service: 1
latitude: 51.4824408
longitude: -0.2180591
altitude: 54.7575316974
position_covariance: [1.094116, 0.0, 0.0, 0.0, 1.094116, 0.0, 0.0, 0.0, 2.778889]
position_covariance_type: 2
---
header: 
  seq: 3490
  stamp: 
    secs: 1558789565
    nsecs: 721949574
  frame_id: "base_link"
status: 
  status: 0
  service: 1
latitude: 51.4824408
longitude: -0.2180593
altitude: 54.7595319282
position_covariance: [1.121481, 0.0, 0.0, 0.0, 1.121481, 0.0, 0.0, 0.0, 2.8934010000000003]
position_covariance_type: 2
---
header: 
  seq: 3491
  stamp: 
    secs: 1558789565
    nsecs: 822092008
  frame_id: "base_link"
status: 
  status: 0
  service: 1
latitude: 51.4824409
longitude: -0.2180595
altitude: 54.7615322807
position_covariance: [1.121481, 0.0, 0.0, 0.0, 1.121481, 0.0, 0.0, 0.0, 2.8934010000000003]
position_covariance_type: 2
---
header: 
  seq: 3492
  stamp: 
    secs: 1558789565
    nsecs: 922316284
  frame_id: "base_link"
status: 
  status: 0
  service: 1
latitude: 51.4824409
longitude: -0.2180597
altitude: 54.7625325115
position_covariance: [1.147041, 0.0, 0.0, 0.0, 1.147041, 0.0, 0.0, 0.0, 3.0067559999999998]
position_covariance_type: 2
---
header: 
  seq: 3493
  stamp: 
    secs: 1558789566
    nsecs:  20805246
  frame_id: "base_link"
status: 
  status: 0
  service: 1
latitude: 51.4824409
longitude: -0.21806
altitude: 54.7655328578
position_covariance: [1.147041, 0.0, 0.0, 0.0, 1.147041, 0.0, 0.0, 0.0, 3.0067559999999998]
position_covariance_type: 2
---
header: 
  seq: 3494
  stamp: 
    secs: 1558789566
    nsecs: 121875195
  frame_id: "base_link"
status: 
  status: 0
  service: 1
latitude: 51.4824409
longitude: -0.2180602
altitude: 54.7715330886
position_covariance: [1.147041, 0.0, 0.0, 0.0, 1.147041, 0.0, 0.0, 0.0, 3.0067559999999998]
position_covariance_type: 2
---
header: 
  seq: 3495
  stamp: 
    secs: 1558789566
    nsecs: 222591529
  frame_id: "base_link"
status: 
  status: 0
  service: 1
latitude: 51.4824409
longitude: -0.2180605
altitude: 54.7805334348
position_covariance: [1.1728889999999998, 0.0, 0.0, 0.0, 1.1728889999999998, 0.0, 0.0, 0.0, 3.125824]
position_covariance_type: 2
---
header: 
  seq: 3496
  stamp: 
    secs: 1558789566
    nsecs: 323595827
  frame_id: "base_link"
status: 
  status: 0
  service: 1
latitude: 51.482441
longitude: -0.2180608
altitude: 54.7895339027
position_covariance: [1.203409, 0.0, 0.0, 0.0, 1.203409, 0.0, 0.0, 0.0, 3.243601]
position_covariance_type: 2
---
header: 
  seq: 3497
  stamp: 
    secs: 1558789566
    nsecs: 422752007
  frame_id: "base_link"
status: 
  status: 0
  service: 1
latitude: 51.482441
longitude: -0.218061
altitude: 54.7965341335
position_covariance: [1.203409, 0.0, 0.0, 0.0, 1.203409, 0.0, 0.0, 0.0, 3.243601]
position_covariance_type: 2
---
header: 
  seq: 3498
  stamp: 
    secs: 1558789566
    nsecs: 523138430
  frame_id: "base_link"
status: 
  status: 0
  service: 1
latitude: 51.482441
longitude: -0.2180612
altitude: 54.8045343644
position_covariance: [1.2365440000000003, 0.0, 0.0, 0.0, 1.2365440000000003, 0.0, 0.0, 0.0, 3.359889]
position_covariance_type: 2
---
header: 
  seq: 3499
  stamp: 
    secs: 1558789566
    nsecs: 621350017
  frame_id: "base_link"
status: 
  status: 0
  service: 1
latitude: 51.482441
longitude: -0.2180615
altitude: 54.8095347106
position_covariance: [1.2365440000000003, 0.0, 0.0, 0.0, 1.2365440000000003, 0.0, 0.0, 0.0, 3.359889]
position_covariance_type: 2
---
header: 
  seq: 3500
  stamp: 
    secs: 1558789566
    nsecs: 722144474
  frame_id: "base_link"
status: 
  status: 0
  service: 1
latitude: 51.482441
longitude: -0.2180618
altitude: 54.8115350568
position_covariance: [0.7516889999999999, 0.0, 0.0, 0.0, 0.7516889999999999, 0.0, 0.0, 0.0, 3.4969000000000006]
position_covariance_type: 2
---
header: 
  seq: 3501
  stamp: 
    secs: 1558789566
    nsecs: 824800898
  frame_id: "base_link"
status: 
  status: 0
  service: 1
latitude: 51.482441
longitude: -0.2180621
altitude: 54.8135354031
position_covariance: [0.7516889999999999, 0.0, 0.0, 0.0, 0.7516889999999999, 0.0, 0.0, 0.0, 3.4969000000000006]
position_covariance_type: 2
---
header: 
  seq: 3502
  stamp: 
    secs: 1558789566
    nsecs: 923948919
  frame_id: "base_link"
status: 
  status: 0
  service: 1
latitude: 51.482441
longitude: -0.2180624
altitude: 54.8175357493
position_covariance: [0.6448090000000001, 0.0, 0.0, 0.0, 0.6448090000000001, 0.0, 0.0, 0.0, 3.6979290000000002]
position_covariance_type: 2
---
header: 
  seq: 3503
  stamp: 
    secs: 1558789567
    nsecs:  23756486
  frame_id: "base_link"
status: 
  status: 0
  service: 1
latitude: 51.482441
longitude: -0.2180628
altitude: 54.820536211
position_covariance: [0.6448090000000001, 0.0, 0.0, 0.0, 0.6448090000000001, 0.0, 0.0, 0.0, 3.6979290000000002]
position_covariance_type: 2
---
header: 
  seq: 3504
  stamp: 
    secs: 1558789567
    nsecs: 123247047
  frame_id: "base_link"
status: 
  status: 0
  service: 1
latitude: 51.482441
longitude: -0.2180631
altitude: 54.8225365572
position_covariance: [0.6193690000000001, 0.0, 0.0, 0.0, 0.6193690000000001, 0.0, 0.0, 0.0, 3.912484]
position_covariance_type: 2
---
header: 
  seq: 3505
  stamp: 
    secs: 1558789567
    nsecs: 222962052
  frame_id: "base_link"
status: 
  status: 0
  service: 1
latitude: 51.4824411
longitude: -0.2180636
altitude: 54.8235372559
position_covariance: [0.6193690000000001, 0.0, 0.0, 0.0, 0.6193690000000001, 0.0, 0.0, 0.0, 3.912484]
position_covariance_type: 2
---
header: 
  seq: 3506
  stamp: 
    secs: 1558789567
    nsecs: 322210533
  frame_id: "base_link"
status: 
  status: 0
  service: 1
latitude: 51.4824411
longitude: -0.218064
altitude: 54.8225377176
position_covariance: [0.617796, 0.0, 0.0, 0.0, 0.617796, 0.0, 0.0, 0.0, 4.124961000000001]
position_covariance_type: 2
---
header: 
  seq: 3507
  stamp: 
    secs: 1558789567
    nsecs: 421199506
  frame_id: "base_link"
status: 
  status: 0
  service: 1
latitude: 51.4824411
longitude: -0.2180645
altitude: 54.8195382946
position_covariance: [0.617796, 0.0, 0.0, 0.0, 0.617796, 0.0, 0.0, 0.0, 4.124961000000001]
position_covariance_type: 2
---
header: 
  seq: 3508
  stamp: 
    secs: 1558789567
    nsecs: 521321774
  frame_id: "base_link"
status: 
  status: 0
  service: 1
latitude: 51.4824411
longitude: -0.218065
altitude: 54.8175388717
position_covariance: [0.6544810000000001, 0.0, 0.0, 0.0, 0.6544810000000001, 0.0, 0.0, 0.0, 4.182024999999999]
position_covariance_type: 2
---
header: 
  seq: 3509
  stamp: 
    secs: 1558789567
    nsecs: 624908933
  frame_id: "base_link"
status: 
  status: 0
  service: 1
latitude: 51.482441
longitude: -0.2180654
altitude: 54.8195392117
position_covariance: [0.6544810000000001, 0.0, 0.0, 0.0, 0.6544810000000001, 0.0, 0.0, 0.0, 4.182024999999999]
position_covariance_type: 2
---
header: 
  seq: 3510
  stamp: 
    secs: 1558789567
    nsecs: 723297244
  frame_id: "base_link"
status: 
  status: 0
  service: 1
latitude: 51.482441
longitude: -0.2180658
altitude: 54.8225396733
position_covariance: [0.7072809999999999, 0.0, 0.0, 0.0, 0.7072809999999999, 0.0, 0.0, 0.0, 4.268355999999999]
position_covariance_type: 2
---
header: 
  seq: 3511
  stamp: 
    secs: 1558789567
    nsecs: 823524714
  frame_id: "base_link"
status: 
  status: 0
  service: 1
latitude: 51.482441
longitude: -0.2180661
altitude: 54.8275400196
position_covariance: [0.7072809999999999, 0.0, 0.0, 0.0, 0.7072809999999999, 0.0, 0.0, 0.0, 4.268355999999999]
position_covariance_type: 2
---
header: 
  seq: 3512
  stamp: 
    secs: 1558789567
    nsecs: 923131817
  frame_id: "base_link"
status: 
  status: 0
  service: 1
latitude: 51.4824409
longitude: -0.2180664
altitude: 54.8325402441
position_covariance: [0.7361639999999999, 0.0, 0.0, 0.0, 0.7361639999999999, 0.0, 0.0, 0.0, 4.338889000000001]
position_covariance_type: 2
---
header: 
  seq: 3513
  stamp: 
    secs: 1558789568
    nsecs:  25144705
  frame_id: "base_link"
status: 
  status: 0
  service: 1
latitude: 51.4824409
longitude: -0.2180666
altitude: 54.839540475
position_covariance: [0.7361639999999999, 0.0, 0.0, 0.0, 0.7361639999999999, 0.0, 0.0, 0.0, 4.338889000000001]
position_covariance_type: 2
---
header: 
  seq: 3514
  stamp: 
    secs: 1558789568
    nsecs: 122136096
  frame_id: "base_link"
status: 
  status: 0
  service: 1
latitude: 51.4824409
longitude: -0.2180669
altitude: 54.8465408212
position_covariance: [0.7361639999999999, 0.0, 0.0, 0.0, 0.7361639999999999, 0.0, 0.0, 0.0, 4.338889000000001]
position_covariance_type: 2
---
header: 
  seq: 3515
  stamp: 
    secs: 1558789568
    nsecs: 220773784
  frame_id: "base_link"
status: 
  status: 0
  service: 1
latitude: 51.4824409
longitude: -0.2180671
altitude: 54.852541052
position_covariance: [0.762129, 0.0, 0.0, 0.0, 0.762129, 0.0, 0.0, 0.0, 4.397409]
position_covariance_type: 2
---
header: 
  seq: 3516
  stamp: 
    secs: 1558789568
    nsecs: 321144576
  frame_id: "base_link"
status: 
  status: 0
  service: 1
latitude: 51.4824409
longitude: -0.2180672
altitude: 54.8575411674
position_covariance: [0.540225, 0.0, 0.0, 0.0, 0.540225, 0.0, 0.0, 0.0, 4.507129000000001]
position_covariance_type: 2
---
header: 
  seq: 3517
  stamp: 
    secs: 1558789568
    nsecs: 424804798
  frame_id: "base_link"
status: 
  status: 0
  service: 1
latitude: 51.4824408
longitude: -0.2180675
altitude: 54.860541392
position_covariance: [0.540225, 0.0, 0.0, 0.0, 0.540225, 0.0, 0.0, 0.0, 4.507129000000001]
position_covariance_type: 2
---
header: 
  seq: 3518
  stamp: 
    secs: 1558789568
    nsecs: 523131734
  frame_id: "base_link"
status: 
  status: 0
  service: 1
latitude: 51.4824408
longitude: -0.2180676
altitude: 54.8605415074
position_covariance: [0.4914009999999999, 0.0, 0.0, 0.0, 0.4914009999999999, 0.0, 0.0, 0.0, 4.695888999999999]
position_covariance_type: 2
---
header: 
  seq: 3519
  stamp: 
    secs: 1558789568
    nsecs: 623832587
  frame_id: "base_link"
status: 
  status: 0
  service: 1
latitude: 51.4824408
longitude: -0.2180678
altitude: 54.8655417383
position_covariance: [0.4914009999999999, 0.0, 0.0, 0.0, 0.4914009999999999, 0.0, 0.0, 0.0, 4.695888999999999]
position_covariance_type: 2
---
header: 
  seq: 3520
  stamp: 
    secs: 1558789568
    nsecs: 722569031
  frame_id: "base_link"
status: 
  status: 0
  service: 1
latitude: 51.4824408
longitude: -0.218068
altitude: 54.8715419691
position_covariance: [0.47748099999999993, 0.0, 0.0, 0.0, 0.47748099999999993, 0.0, 0.0, 0.0, 4.8752640000000005]
position_covariance_type: 2
---
header: 
  seq: 3521
  stamp: 
    secs: 1558789568
    nsecs: 822936751
  frame_id: "base_link"
status: 
  status: 0
  service: 1
latitude: 51.4824408
longitude: -0.2180682
altitude: 54.8765421999
position_covariance: [0.47748099999999993, 0.0, 0.0, 0.0, 0.47748099999999993, 0.0, 0.0, 0.0, 4.8752640000000005]
position_covariance_type: 2
---
header: 
  seq: 3522
  stamp: 
    secs: 1558789568
    nsecs: 922304475
  frame_id: "base_link"
status: 
  status: 0
  service: 1
latitude: 51.4824407
longitude: -0.2180684
altitude: 54.8805423091
position_covariance: [0.47472099999999995, 0.0, 0.0, 0.0, 0.47472099999999995, 0.0, 0.0, 0.0, 5.049009]
position_covariance_type: 2
---
header: 
  seq: 3523
  stamp: 
    secs: 1558789569
    nsecs:  22174576
  frame_id: "base_link"
status: 
  status: 0
  service: 1
latitude: 51.4824407
longitude: -0.2180686
altitude: 54.8885425399
position_covariance: [0.47472099999999995, 0.0, 0.0, 0.0, 0.47472099999999995, 0.0, 0.0, 0.0, 5.049009]
position_covariance_type: 2
---
header: 
  seq: 3524
  stamp: 
    secs: 1558789569
    nsecs: 124858397
  frame_id: "base_link"
status: 
  status: 0
  service: 1
latitude: 51.4824407
longitude: -0.2180688
altitude: 54.8975427707
position_covariance: [0.49420899999999995, 0.0, 0.0, 0.0, 0.49420899999999995, 0.0, 0.0, 0.0, 5.071503999999999]
position_covariance_type: 2
---
header: 
  seq: 3525
  stamp: 
    secs: 1558789569
    nsecs: 223588436
  frame_id: "base_link"
status: 
  status: 0
  service: 1
latitude: 51.4824407
longitude: -0.2180691
altitude: 54.906543117
position_covariance: [0.49420899999999995, 0.0, 0.0, 0.0, 0.49420899999999995, 0.0, 0.0, 0.0, 5.071503999999999]
position_covariance_type: 2
---
header: 
  seq: 3526
  stamp: 
    secs: 1558789569
    nsecs: 323056550
  frame_id: "base_link"
status: 
  status: 0
  service: 1
latitude: 51.4824406
longitude: -0.2180693
altitude: 54.9175432261
position_covariance: [0.5314409999999999, 0.0, 0.0, 0.0, 0.5314409999999999, 0.0, 0.0, 0.0, 5.1438239999999995]
position_covariance_type: 2
---
header: 
  seq: 3527
  stamp: 
    secs: 1558789569
    nsecs: 424283924
  frame_id: "base_link"
status: 
  status: 0
  service: 1
latitude: 51.4824406
longitude: -0.2180696
altitude: 54.9245435724
position_covariance: [0.5314409999999999, 0.0, 0.0, 0.0, 0.5314409999999999, 0.0, 0.0, 0.0, 5.1438239999999995]
position_covariance_type: 2
---
header: 
  seq: 3528
  stamp: 
    secs: 1558789569
