header: 
  seq: 0
  stamp: 
    secs: 1558789183
    nsecs: 935332451
  frame_id: "base_link"
status: 
  status: 0
  service: 1
latitude: 51.4824415
longitude: -0.2180488
altitude: 54.6325206616
position_covariance: [0.047089, 0.0, 0.0, 0.0, 0.047089, 0.0, 0.0, 0.0, 0.07562500000000001]
position_covariance_type: 2
---
header: 
  seq: 1
  stamp: 
    secs: 1558789184
    nsecs:  36582327
  frame_id: "base_link"
status: 
  status: 0
  service: 1
latitude: 51.4824415
longitude: -0.2180488
altitude: 54.6345206616
position_covariance: [0.047089, 0.0, 0.0, 0.0, 0.047089, 0.0, 0.0, 0.0, 0.07562500000000001]
position_covariance_type: 2
---
header: 
  seq: 2
  stamp: 
    secs: 1558789184
    nsecs: 134671583
  frame_id: "base_link"
status: 
  status: 0
  service: 1
latitude: 51.4824415
longitude: -0.2180488
altitude: 54.6365206616
position_covariance: [0.047524, 0.0, 0.0, 0.0, 0.047524, 0.0, 0.0, 0.0, 0.07728400000000002]
position_covariance_type: 2
---
header: 
  seq: 3
  stamp: 
    secs: 1558789184
    nsecs: 235266469
  frame_id: "base_link"
status: 
  status: 0
  service: 1
latitude: 51.4824415
longitude: -0.2180488
altitude: 54.6365206616
position_covariance: [0.047524, 0.0, 0.0, 0.0, 0.047524, 0.0, 0.0, 0.0, 0.07728400000000002]
position_covariance_type: 2
---
header: 
  seq: 4
  stamp: 
    secs: 1558789184
    nsecs: 338268714
  frame_id: "base_link"
status: 
  status: 0
  service: 1
latitude: 51.4824415
longitude: -0.2180488
altitude: 54.6355206616
position_covariance: [0.047961, 0.0, 0.0, 0.0, 0.047961, 0.0, 0.0, 0.0, 0.07784100000000002]
position_covariance_type: 2
---
header: 
  seq: 5
  stamp: 
    secs: 1558789184
    nsecs: 437795432
  frame_id: "base_link"
status: 
  status: 0
  service: 1
latitude: 51.4824416
longitude: -0.2180488
altitude: 54.6375207832
position_covariance: [0.047961, 0.0, 0.0, 0.0, 0.047961, 0.0, 0.0, 0.0, 0.07784100000000002]
position_covariance_type: 2
---
header: 
  seq: 6
  stamp: 
    secs: 1558789184
    nsecs: 536400405
  frame_id: "base_link"
status: 
  status: 0
  service: 1
latitude: 51.4824416
longitude: -0.2180488
altitude: 54.6385207832
position_covariance: [0.0484, 0.0, 0.0, 0.0, 0.0484, 0.0, 0.0, 0.0, 0.07840000000000001]
position_covariance_type: 2
---
header: 
  seq: 7
  stamp: 
    secs: 1558789184
    nsecs: 636597159
  frame_id: "base_link"
status: 
  status: 0
  service: 1
latitude: 51.4824416
longitude: -0.2180488
altitude: 54.6385207832
position_covariance: [0.0484, 0.0, 0.0, 0.0, 0.0484, 0.0, 0.0, 0.0, 0.07840000000000001]
position_covariance_type: 2
---
header: 
  seq: 8
  stamp: 
    secs: 1558789184
    nsecs: 736660110
  frame_id: "base_link"
status: 
  status: 0
  service: 1
latitude: 51.4824416
longitude: -0.2180488
altitude: 54.6375207832
position_covariance: [0.0484, 0.0, 0.0, 0.0, 0.0484, 0.0, 0.0, 0.0, 0.07840000000000001]
position_covariance_type: 2
---
header: 
  seq: 9
  stamp: 
    secs: 1558789184
    nsecs: 834508179
  frame_id: "base_link"
status: 
  status: 0
  service: 1
latitude: 51.4824416
longitude: -0.2180488
altitude: 54.6375207832
position_covariance: [0.0484, 0.0, 0.0, 0.0, 0.0484, 0.0, 0.0, 0.0, 0.07840000000000001]
position_covariance_type: 2
---
header: 
  seq: 10
  stamp: 
    secs: 1558789184
    nsecs: 935867707
  frame_id: "base_link"
status: 
  status: 0
  service: 1
latitude: 51.4824417
longitude: -0.2180488
altitude: 54.6375209049
position_covariance: [0.047524, 0.0, 0.0, 0.0, 0.047524, 0.0, 0.0, 0.0, 0.07672900000000002]
position_covariance_type: 2
---
header: 
  seq: 11
  stamp: 
    secs: 1558789185
    nsecs:  34214763
  frame_id: "base_link"
status: 
  status: 0
  service: 1
latitude: 51.4824417
longitude: -0.2180488
altitude: 54.6365209049
position_covariance: [0.047524, 0.0, 0.0, 0.0, 0.047524, 0.0, 0.0, 0.0, 0.07672900000000002]
position_covariance_type: 2
---
header: 
  seq: 12
  stamp: 
    secs: 1558789185
    nsecs: 137318059
  frame_id: "base_link"
status: 
  status: 0
  service: 1
latitude: 51.4824417
longitude: -0.2180488
altitude: 54.6385209049
position_covariance: [0.047089, 0.0, 0.0, 0.0, 0.047089, 0.0, 0.0, 0.0, 0.07617600000000001]
position_covariance_type: 2
---
header: 
  seq: 13
  stamp: 
    secs: 1558789185
    nsecs: 237325775
  frame_id: "base_link"
status: 
  status: 0
  service: 1
latitude: 51.4824418
longitude: -0.2180488
altitude: 54.6415210266
position_covariance: [0.047089, 0.0, 0.0, 0.0, 0.047089, 0.0, 0.0, 0.0, 0.07617600000000001]
position_covariance_type: 2
---
header: 
  seq: 14
  stamp: 
    secs: 1558789185
    nsecs: 335957825
  frame_id: "base_link"
status: 
  status: 0
  service: 1
latitude: 51.4824418
longitude: -0.2180487
altitude: 54.6425209111
position_covariance: [0.046655999999999996, 0.0, 0.0, 0.0, 0.046655999999999996, 0.0, 0.0, 0.0, 0.07562500000000001]
position_covariance_type: 2
---
header: 
  seq: 15
  stamp: 
    secs: 1558789185
    nsecs: 439506852
  frame_id: "base_link"
status: 
  status: 0
  service: 1
latitude: 51.4824419
longitude: -0.2180487
altitude: 54.6455210328
position_covariance: [0.046655999999999996, 0.0, 0.0, 0.0, 0.046655999999999996, 0.0, 0.0, 0.0, 0.07562500000000001]
position_covariance_type: 2
---
header: 
  seq: 16
  stamp: 
    secs: 1558789185
    nsecs: 536620433
  frame_id: "base_link"
status: 
  status: 0
  service: 1
latitude: 51.4824419
longitude: -0.2180486
altitude: 54.6475209174
position_covariance: [0.046655999999999996, 0.0, 0.0, 0.0, 0.046655999999999996, 0.0, 0.0, 0.0, 0.07562500000000001]
position_covariance_type: 2
---
header: 
  seq: 17
  stamp: 
    secs: 1558789185
    nsecs: 635522832
  frame_id: "base_link"
status: 
  status: 0
  service: 1
latitude: 51.4824419
longitude: -0.2180486
altitude: 54.6485209174
position_covariance: [0.047089, 0.0, 0.0, 0.0, 0.047089, 0.0, 0.0, 0.0, 0.07617600000000001]
position_covariance_type: 2
---
header: 
  seq: 18
  stamp: 
    secs: 1558789185
    nsecs: 736860875
  frame_id: "base_link"
status: 
  status: 0
  service: 1
latitude: 51.482442
longitude: -0.2180486
altitude: 54.6485210391
position_covariance: [0.047089, 0.0, 0.0, 0.0, 0.047089, 0.0, 0.0, 0.0, 0.07617600000000001]
position_covariance_type: 2
---
header: 
  seq: 19
  stamp: 
    secs: 1558789185
    nsecs: 838265410
  frame_id: "base_link"
status: 
  status: 0
  service: 1
latitude: 51.482442
longitude: -0.2180486
altitude: 54.6485210391
position_covariance: [0.047089, 0.0, 0.0, 0.0, 0.047089, 0.0, 0.0, 0.0, 0.07617600000000001]
position_covariance_type: 2
---
header: 
  seq: 20
  stamp: 
    secs: 1558789185
    nsecs: 936644866
  frame_id: "base_link"
status: 
  status: 0
  service: 1
latitude: 51.482442
longitude: -0.2180486
altitude: 54.6465210391
position_covariance: [0.046224999999999995, 0.0, 0.0, 0.0, 0.046224999999999995, 0.0, 0.0, 0.0, 0.07452900000000001]
position_covariance_type: 2
---
header: 
  seq: 21
  stamp: 
    secs: 1558789186
    nsecs:  37797550
  frame_id: "base_link"
status: 
  status: 0
  service: 1
latitude: 51.482442
longitude: -0.2180485
altitude: 54.6465209236
position_covariance: [0.046224999999999995, 0.0, 0.0, 0.0, 0.046224999999999995, 0.0, 0.0, 0.0, 0.07452900000000001]
position_covariance_type: 2
---
header: 
  seq: 22
  stamp: 
    secs: 1558789186
    nsecs: 137278303
  frame_id: "base_link"
status: 
  status: 0
  service: 1
latitude: 51.482442
longitude: -0.2180485
altitude: 54.6475209236
position_covariance: [0.046224999999999995, 0.0, 0.0, 0.0, 0.046224999999999995, 0.0, 0.0, 0.0, 0.07398400000000001]
position_covariance_type: 2
---
header: 
  seq: 23
  stamp: 
    secs: 1558789186
    nsecs: 235817751
  frame_id: "base_link"
status: 
  status: 0
  service: 1
latitude: 51.482442
longitude: -0.2180485
altitude: 54.6475209236
position_covariance: [0.046224999999999995, 0.0, 0.0, 0.0, 0.046224999999999995, 0.0, 0.0, 0.0, 0.07398400000000001]
position_covariance_type: 2
---
header: 
  seq: 24
  stamp: 
    secs: 1558789186
    nsecs: 335799101
  frame_id: "base_link"
status: 
  status: 0
  service: 1
latitude: 51.4824419
longitude: -0.2180484
altitude: 54.6435206866
position_covariance: [0.046224999999999995, 0.0, 0.0, 0.0, 0.046224999999999995, 0.0, 0.0, 0.0, 0.07452900000000001]
position_covariance_type: 2
---
header: 
  seq: 25
  stamp: 
    secs: 1558789186
    nsecs: 435469649
  frame_id: "base_link"
status: 
  status: 0
  service: 1
latitude: 51.4824419
longitude: -0.2180483
altitude: 54.6385205712
position_covariance: [0.046224999999999995, 0.0, 0.0, 0.0, 0.046224999999999995, 0.0, 0.0, 0.0, 0.07452900000000001]
position_covariance_type: 2
---
header: 
  seq: 26
  stamp: 
    secs: 1558789186
    nsecs: 538542220
  frame_id: "base_link"
status: 
  status: 0
  service: 1
latitude: 51.4824419
longitude: -0.2180483
altitude: 54.6345205712
position_covariance: [0.046655999999999996, 0.0, 0.0, 0.0, 0.046655999999999996, 0.0, 0.0, 0.0, 0.07562500000000001]
position_covariance_type: 2
---
header: 
  seq: 27
  stamp: 
    secs: 1558789186
    nsecs: 635713644
  frame_id: "base_link"
status: 
  status: 0
  service: 1
latitude: 51.4824419
longitude: -0.2180482
altitude: 54.6315204557
position_covariance: [0.046655999999999996, 0.0, 0.0, 0.0, 0.046655999999999996, 0.0, 0.0, 0.0, 0.07562500000000001]
position_covariance_type: 2
---
header: 
  seq: 28
  stamp: 
    secs: 1558789186
    nsecs: 736866828
  frame_id: "base_link"
status: 
  status: 0
  service: 1
latitude: 51.4824418
longitude: -0.2180482
altitude: 54.6305203341
position_covariance: [0.046224999999999995, 0.0, 0.0, 0.0, 0.046224999999999995, 0.0, 0.0, 0.0, 0.07452900000000001]
position_covariance_type: 2
---
header: 
  seq: 29
  stamp: 
    secs: 1558789186
    nsecs: 836985845
  frame_id: "base_link"
status: 
  status: 0
  service: 1
latitude: 51.4824418
longitude: -0.2180481
altitude: 54.6305202187
position_covariance: [0.046224999999999995, 0.0, 0.0, 0.0, 0.046224999999999995, 0.0, 0.0, 0.0, 0.07452900000000001]
position_covariance_type: 2
---
header: 
  seq: 30
  stamp: 
    secs: 1558789186
    nsecs: 936832701
  frame_id: "base_link"
status: 
  status: 0
  service: 1
latitude: 51.4824418
longitude: -0.218048
altitude: 54.6315201033
position_covariance: [0.045795999999999996, 0.0, 0.0, 0.0, 0.045795999999999996, 0.0, 0.0, 0.0, 0.0729]
position_covariance_type: 2
---
header: 
  seq: 31
  stamp: 
    secs: 1558789187
    nsecs:  36805742
  frame_id: "base_link"
status: 
  status: 0
  service: 1
latitude: 51.4824417
longitude: -0.218048
altitude: 54.6325199816
position_covariance: [0.045795999999999996, 0.0, 0.0, 0.0, 0.045795999999999996, 0.0, 0.0, 0.0, 0.0729]
position_covariance_type: 2
---
header: 
  seq: 32
  stamp: 
    secs: 1558789187
    nsecs: 137149522
  frame_id: "base_link"
status: 
  status: 0
  service: 1
latitude: 51.4824417
longitude: -0.218048
altitude: 54.6345199816
position_covariance: [0.045369, 0.0, 0.0, 0.0, 0.045369, 0.0, 0.0, 0.0, 0.07236100000000001]
position_covariance_type: 2
---
header: 
  seq: 33
  stamp: 
    secs: 1558789187
    nsecs: 235236438
  frame_id: "base_link"
status: 
  status: 0
  service: 1
latitude: 51.4824416
longitude: -0.2180479
altitude: 54.6335197445
position_covariance: [0.045369, 0.0, 0.0, 0.0, 0.045369, 0.0, 0.0, 0.0, 0.07236100000000001]
position_covariance_type: 2
---
header: 
  seq: 34
  stamp: 
    secs: 1558789187
    nsecs: 335210055
  frame_id: "base_link"
status: 
  status: 0
  service: 1
latitude: 51.4824415
longitude: -0.2180479
altitude: 54.6315196229
position_covariance: [0.045369, 0.0, 0.0, 0.0, 0.045369, 0.0, 0.0, 0.0, 0.07236100000000001]
position_covariance_type: 2
---
header: 
  seq: 35
  stamp: 
    secs: 1558789187
    nsecs: 436830916
  frame_id: "base_link"
status: 
  status: 0
  service: 1
latitude: 51.4824414
longitude: -0.2180478
altitude: 54.6315193858
position_covariance: [0.045369, 0.0, 0.0, 0.0, 0.045369, 0.0, 0.0, 0.0, 0.07236100000000001]
position_covariance_type: 2
---
header: 
  seq: 36
  stamp: 
    secs: 1558789187
    nsecs: 536478948
  frame_id: "base_link"
status: 
  status: 0
  service: 1
latitude: 51.4824413
longitude: -0.2180478
altitude: 54.6335192642
position_covariance: [0.045795999999999996, 0.0, 0.0, 0.0, 0.045795999999999996, 0.0, 0.0, 0.0, 0.073441]
position_covariance_type: 2
---
header: 
  seq: 37
  stamp: 
    secs: 1558789187
    nsecs: 636064081
  frame_id: "base_link"
status: 
  status: 0
  service: 1
latitude: 51.4824412
longitude: -0.2180477
altitude: 54.6365190271
position_covariance: [0.045795999999999996, 0.0, 0.0, 0.0, 0.045795999999999996, 0.0, 0.0, 0.0, 0.073441]
position_covariance_type: 2
---
header: 
  seq: 38
  stamp: 
    secs: 1558789187
    nsecs: 737165005
  frame_id: "base_link"
status: 
  status: 0
  service: 1
latitude: 51.4824412
longitude: -0.2180476
altitude: 54.6365189117
position_covariance: [0.045795999999999996, 0.0, 0.0, 0.0, 0.045795999999999996, 0.0, 0.0, 0.0, 0.0729]
position_covariance_type: 2
---
header: 
  seq: 39
  stamp: 
    secs: 1558789187
    nsecs: 836085606
  frame_id: "base_link"
status: 
  status: 0
  service: 1
latitude: 51.4824411
longitude: -0.2180475
altitude: 54.6375186746
position_covariance: [0.045795999999999996, 0.0, 0.0, 0.0, 0.045795999999999996, 0.0, 0.0, 0.0, 0.0729]
position_covariance_type: 2
---
header: 
  seq: 40
  stamp: 
    secs: 1558789187
    nsecs: 934658615
  frame_id: "base_link"
status: 
  status: 0
  service: 1
latitude: 51.4824411
longitude: -0.2180474
altitude: 54.6355185592
position_covariance: [0.044521, 0.0, 0.0, 0.0, 0.044521, 0.0, 0.0, 0.0, 0.07075600000000001]
position_covariance_type: 2
---
header: 
  seq: 41
  stamp: 
    secs: 1558789188
    nsecs:  33898131
  frame_id: "base_link"
status: 
  status: 0
  service: 1
latitude: 51.482441
longitude: -0.2180473
altitude: 54.6355183221
position_covariance: [0.044521, 0.0, 0.0, 0.0, 0.044521, 0.0, 0.0, 0.0, 0.07075600000000001]
position_covariance_type: 2
---
header: 
  seq: 42
  stamp: 
    secs: 1558789188
    nsecs: 134455711
  frame_id: "base_link"
status: 
  status: 0
  service: 1
latitude: 51.482441
longitude: -0.2180471
altitude: 54.6315180913
position_covariance: [0.044521, 0.0, 0.0, 0.0, 0.044521, 0.0, 0.0, 0.0, 0.07022500000000001]
position_covariance_type: 2
---
header: 
  seq: 43
  stamp: 
    secs: 1558789188
    nsecs: 238088391
  frame_id: "base_link"
status: 
  status: 0
  service: 1
latitude: 51.4824409
longitude: -0.218047
altitude: 54.6245178542
position_covariance: [0.044521, 0.0, 0.0, 0.0, 0.044521, 0.0, 0.0, 0.0, 0.07022500000000001]
position_covariance_type: 2
---
header: 
  seq: 44
  stamp: 
    secs: 1558789188
    nsecs: 335985170
  frame_id: "base_link"
status: 
  status: 0
  service: 1
latitude: 51.4824408
longitude: -0.2180469
altitude: 54.6175176172
position_covariance: [0.044521, 0.0, 0.0, 0.0, 0.044521, 0.0, 0.0, 0.0, 0.07022500000000001]
position_covariance_type: 2
---
header: 
  seq: 45
  stamp: 
    secs: 1558789188
    nsecs: 438078137
  frame_id: "base_link"
status: 
  status: 0
  service: 1
latitude: 51.4824408
longitude: -0.2180467
altitude: 54.6155173863
position_covariance: [0.044521, 0.0, 0.0, 0.0, 0.044521, 0.0, 0.0, 0.0, 0.07022500000000001]
position_covariance_type: 2
---
header: 
  seq: 46
  stamp: 
    secs: 1558789188
    nsecs: 535315853
  frame_id: "base_link"
status: 
  status: 0
  service: 1
latitude: 51.4824407
longitude: -0.2180466
altitude: 54.6135171493
position_covariance: [0.044521, 0.0, 0.0, 0.0, 0.044521, 0.0, 0.0, 0.0, 0.07022500000000001]
position_covariance_type: 2
---
header: 
  seq: 47
  stamp: 
    secs: 1558789188
    nsecs: 635265215
  frame_id: "base_link"
status: 
  status: 0
  service: 1
latitude: 51.4824406
longitude: -0.2180464
altitude: 54.6095167968
position_covariance: [0.044521, 0.0, 0.0, 0.0, 0.044521, 0.0, 0.0, 0.0, 0.07022500000000001]
position_covariance_type: 2
---
header: 
  seq: 48
  stamp: 
    secs: 1558789188
    nsecs: 735714903
  frame_id: "base_link"
status: 
  status: 0
  service: 1
latitude: 51.4824406
longitude: -0.2180463
altitude: 54.6055166814
position_covariance: [0.044944, 0.0, 0.0, 0.0, 0.044944, 0.0, 0.0, 0.0, 0.071289]
position_covariance_type: 2
---
header: 
  seq: 49
  stamp: 
    secs: 1558789188
    nsecs: 834048534
  frame_id: "base_link"
status: 
  status: 0
  service: 1
latitude: 51.4824405
longitude: -0.2180462
altitude: 54.6015164443
position_covariance: [0.044944, 0.0, 0.0, 0.0, 0.044944, 0.0, 0.0, 0.0, 0.071289]
position_covariance_type: 2
---
header: 
  seq: 50
  stamp: 
    secs: 1558789188
    nsecs: 936377948
  frame_id: "base_link"
status: 
  status: 0
  service: 1
latitude: 51.4824405
longitude: -0.2180461
altitude: 54.5985163289
position_covariance: [0.043681, 0.0, 0.0, 0.0, 0.043681, 0.0, 0.0, 0.0, 0.06916900000000001]
position_covariance_type: 2
---
header: 
  seq: 51
  stamp: 
    secs: 1558789189
    nsecs:  37289514
  frame_id: "base_link"
status: 
  status: 0
  service: 1
latitude: 51.4824404
longitude: -0.2180459
altitude: 54.5975159764
position_covariance: [0.043681, 0.0, 0.0, 0.0, 0.043681, 0.0, 0.0, 0.0, 0.06916900000000001]
position_covariance_type: 2
---
header: 
  seq: 52
  stamp: 
    secs: 1558789189
    nsecs: 137306039
  frame_id: "base_link"
status: 
  status: 0
  service: 1
latitude: 51.4824404
longitude: -0.2180458
altitude: 54.598515861
position_covariance: [0.043264, 0.0, 0.0, 0.0, 0.043264, 0.0, 0.0, 0.0, 0.06760000000000001]
position_covariance_type: 2
---
header: 
  seq: 53
  stamp: 
    secs: 1558789189
    nsecs: 236236017
  frame_id: "base_link"
status: 
  status: 0
  service: 1
latitude: 51.4824403
longitude: -0.2180456
altitude: 54.6025155085
position_covariance: [0.043264, 0.0, 0.0, 0.0, 0.043264, 0.0, 0.0, 0.0, 0.06760000000000001]
position_covariance_type: 2
---
header: 
  seq: 54
  stamp: 
    secs: 1558789189
    nsecs: 337257725
  frame_id: "base_link"
status: 
  status: 0
  service: 1
latitude: 51.4824403
longitude: -0.2180454
altitude: 54.6075152777
position_covariance: [0.037636, 0.0, 0.0, 0.0, 0.037636, 0.0, 0.0, 0.0, 0.065536]
position_covariance_type: 2
---
header: 
  seq: 55
  stamp: 
    secs: 1558789189
    nsecs: 434880026
  frame_id: "base_link"
status: 
  status: 0
  service: 1
latitude: 51.4824403
longitude: -0.2180452
altitude: 54.6135150469
position_covariance: [0.037636, 0.0, 0.0, 0.0, 0.037636, 0.0, 0.0, 0.0, 0.065536]
position_covariance_type: 2
---
header: 
  seq: 56
  stamp: 
    secs: 1558789189
    nsecs: 534748463
  frame_id: "base_link"
status: 
  status: 0
  service: 1
latitude: 51.4824402
longitude: -0.2180451
altitude: 54.6175148098
position_covariance: [0.036481, 0.0, 0.0, 0.0, 0.036481, 0.0, 0.0, 0.0, 0.065025]
position_covariance_type: 2
---
header: 
  seq: 57
  stamp: 
    secs: 1558789189
    nsecs: 634317909
  frame_id: "base_link"
status: 
  status: 0
  service: 1
latitude: 51.4824402
longitude: -0.2180449
altitude: 54.621514579
position_covariance: [0.036481, 0.0, 0.0, 0.0, 0.036481, 0.0, 0.0, 0.0, 0.065025]
position_covariance_type: 2
---
header: 
  seq: 58
  stamp: 
    secs: 1558789189
    nsecs: 736846680
  frame_id: "base_link"
status: 
  status: 0
  service: 1
latitude: 51.4824401
longitude: -0.2180448
altitude: 54.6215143419
position_covariance: [0.0361, 0.0, 0.0, 0.0, 0.0361, 0.0, 0.0, 0.0, 0.064516]
position_covariance_type: 2
---
header: 
  seq: 59
  stamp: 
    secs: 1558789189
    nsecs: 836639082
  frame_id: "base_link"
status: 
  status: 0
  service: 1
latitude: 51.4824401
longitude: -0.2180446
altitude: 54.6215141111
position_covariance: [0.0361, 0.0, 0.0, 0.0, 0.0361, 0.0, 0.0, 0.0, 0.064516]
position_covariance_type: 2
---
header: 
  seq: 60
  stamp: 
    secs: 1558789189
    nsecs: 936098687
  frame_id: "base_link"
status: 
  status: 0
  service: 1
latitude: 51.4824401
longitude: -0.2180445
altitude: 54.6215139957
position_covariance: [0.029928999999999997, 0.0, 0.0, 0.0, 0.029928999999999997, 0.0, 0.0, 0.0, 0.051076]
position_covariance_type: 2
---
header: 
  seq: 61
  stamp: 
    secs: 1558789190
    nsecs:  35211508
  frame_id: "base_link"
status: 
  status: 0
  service: 1
latitude: 51.48244
longitude: -0.2180443
altitude: 54.6215136432
position_covariance: [0.029928999999999997, 0.0, 0.0, 0.0, 0.029928999999999997, 0.0, 0.0, 0.0, 0.051076]
position_covariance_type: 2
---
header: 
  seq: 62
  stamp: 
    secs: 1558789190
    nsecs: 134510751
  frame_id: "base_link"
status: 
  status: 0
  service: 1
latitude: 51.48244
longitude: -0.2180442
altitude: 54.6225135278
position_covariance: [0.028900000000000006, 0.0, 0.0, 0.0, 0.028900000000000006, 0.0, 0.0, 0.0, 0.047961]
position_covariance_type: 2
---
header: 
  seq: 63
  stamp: 
    secs: 1558789190
    nsecs: 234282666
  frame_id: "base_link"
status: 
  status: 0
  service: 1
latitude: 51.48244
longitude: -0.2180441
altitude: 54.6245134124
position_covariance: [0.028900000000000006, 0.0, 0.0, 0.0, 0.028900000000000006, 0.0, 0.0, 0.0, 0.047961]
position_covariance_type: 2
---
header: 
  seq: 64
  stamp: 
    secs: 1558789190
    nsecs: 335266338
  frame_id: "base_link"
status: 
  status: 0
  service: 1
latitude: 51.4824399
longitude: -0.2180439
altitude: 54.6275130599
position_covariance: [0.028900000000000006, 0.0, 0.0, 0.0, 0.028900000000000006, 0.0, 0.0, 0.0, 0.047524]
position_covariance_type: 2
---
header: 
  seq: 65
  stamp: 
    secs: 1558789190
    nsecs: 434309419
  frame_id: "base_link"
status: 
  status: 0
  service: 1
latitude: 51.4824399
longitude: -0.2180438
altitude: 54.6315129445
position_covariance: [0.028900000000000006, 0.0, 0.0, 0.0, 0.028900000000000006, 0.0, 0.0, 0.0, 0.047524]
position_covariance_type: 2
---
header: 
  seq: 66
  stamp: 
    secs: 1558789190
    nsecs: 536371820
  frame_id: "base_link"
status: 
  status: 0
  service: 1
latitude: 51.4824398
longitude: -0.2180437
altitude: 54.6335127074
position_covariance: [0.028900000000000006, 0.0, 0.0, 0.0, 0.028900000000000006, 0.0, 0.0, 0.0, 0.047524]
position_covariance_type: 2
---
header: 
  seq: 67
  stamp: 
    secs: 1558789190
    nsecs: 636669892
  frame_id: "base_link"
status: 
  status: 0
  service: 1
latitude: 51.4824398
longitude: -0.2180436
altitude: 54.635512592
position_covariance: [0.028900000000000006, 0.0, 0.0, 0.0, 0.028900000000000006, 0.0, 0.0, 0.0, 0.047524]
position_covariance_type: 2
---
header: 
  seq: 68
  stamp: 
    secs: 1558789190
    nsecs: 736411974
  frame_id: "base_link"
status: 
  status: 0
  service: 1
latitude: 51.4824397
longitude: -0.2180435
altitude: 54.6355123549
position_covariance: [0.028900000000000006, 0.0, 0.0, 0.0, 0.028900000000000006, 0.0, 0.0, 0.0, 0.047524]
position_covariance_type: 2
---
header: 
  seq: 69
  stamp: 
    secs: 1558789190
    nsecs: 835611122
  frame_id: "base_link"
status: 
  status: 0
  service: 1
latitude: 51.4824397
longitude: -0.2180435
altitude: 54.6345123549
position_covariance: [0.028900000000000006, 0.0, 0.0, 0.0, 0.028900000000000006, 0.0, 0.0, 0.0, 0.047524]
position_covariance_type: 2
---
header: 
  seq: 70
  stamp: 
    secs: 1558789190
    nsecs: 935252223
  frame_id: "base_link"
status: 
  status: 0
  service: 1
latitude: 51.4824397
longitude: -0.2180434
altitude: 54.6335122395
position_covariance: [0.028561000000000003, 0.0, 0.0, 0.0, 0.028561000000000003, 0.0, 0.0, 0.0, 0.046224999999999995]
position_covariance_type: 2
---
header: 
  seq: 71
  stamp: 
    secs: 1558789191
    nsecs:  34840298
  frame_id: "base_link"
status: 
  status: 0
  service: 1
latitude: 51.4824396
longitude: -0.2180433
altitude: 54.6305120025
position_covariance: [0.028561000000000003, 0.0, 0.0, 0.0, 0.028561000000000003, 0.0, 0.0, 0.0, 0.046224999999999995]
position_covariance_type: 2
---
header: 
  seq: 72
  stamp: 
    secs: 1558789191
    nsecs: 138385821
  frame_id: "base_link"
status: 
  status: 0
  service: 1
latitude: 51.4824396
longitude: -0.2180433
altitude: 54.6305120025
position_covariance: [0.028224000000000003, 0.0, 0.0, 0.0, 0.028224000000000003, 0.0, 0.0, 0.0, 0.046224999999999995]
position_covariance_type: 2
---
header: 
  seq: 73
  stamp: 
    secs: 1558789191
    nsecs: 235506619
  frame_id: "base_link"
status: 
  status: 0
  service: 1
latitude: 51.4824395
longitude: -0.2180432
altitude: 54.6315117654
position_covariance: [0.028224000000000003, 0.0, 0.0, 0.0, 0.028224000000000003, 0.0, 0.0, 0.0, 0.046224999999999995]
position_covariance_type: 2
---
header: 
  seq: 74
  stamp: 
    secs: 1558789191
    nsecs: 334586745
  frame_id: "base_link"
status: 
  status: 0
  service: 1
latitude: 51.4824395
longitude: -0.2180431
altitude: 54.63251165
position_covariance: [0.028224000000000003, 0.0, 0.0, 0.0, 0.028224000000000003, 0.0, 0.0, 0.0, 0.045795999999999996]
position_covariance_type: 2
---
header: 
  seq: 75
  stamp: 
    secs: 1558789191
    nsecs: 437112559
  frame_id: "base_link"
status: 
  status: 0
  service: 1
latitude: 51.4824394
longitude: -0.218043
altitude: 54.6345114129
position_covariance: [0.028224000000000003, 0.0, 0.0, 0.0, 0.028224000000000003, 0.0, 0.0, 0.0, 0.045795999999999996]
position_covariance_type: 2
---
header: 
  seq: 76
  stamp: 
    secs: 1558789191
    nsecs: 535821109
  frame_id: "base_link"
status: 
  status: 0
  service: 1
latitude: 51.4824394
longitude: -0.218043
altitude: 54.6375114129
position_covariance: [0.028561000000000003, 0.0, 0.0, 0.0, 0.028561000000000003, 0.0, 0.0, 0.0, 0.046224999999999995]
position_covariance_type: 2
---
header: 
  seq: 77
  stamp: 
    secs: 1558789191
    nsecs: 635104936
  frame_id: "base_link"
status: 
  status: 0
  service: 1
latitude: 51.4824393
longitude: -0.2180429
altitude: 54.6355111758
position_covariance: [0.028561000000000003, 0.0, 0.0, 0.0, 0.028561000000000003, 0.0, 0.0, 0.0, 0.046224999999999995]
position_covariance_type: 2
---
header: 
  seq: 78
  stamp: 
    secs: 1558789191
    nsecs: 736366529
  frame_id: "base_link"
status: 
  status: 0
  service: 1
latitude: 51.4824393
longitude: -0.2180429
altitude: 54.6355111758
position_covariance: [0.028561000000000003, 0.0, 0.0, 0.0, 0.028561000000000003, 0.0, 0.0, 0.0, 0.046224999999999995]
position_covariance_type: 2
---
header: 
  seq: 79
  stamp: 
    secs: 1558789191
    nsecs: 835400569
  frame_id: "base_link"
status: 
  status: 0
  service: 1
latitude: 51.4824392
longitude: -0.2180428
altitude: 54.6355109388
position_covariance: [0.028561000000000003, 0.0, 0.0, 0.0, 0.028561000000000003, 0.0, 0.0, 0.0, 0.046224999999999995]
position_covariance_type: 2
---
header: 
  seq: 80
  stamp: 
    secs: 1558789191
    nsecs: 937247964
  frame_id: "base_link"
status: 
  status: 0
  service: 1
latitude: 51.4824392
longitude: -0.2180428
altitude: 54.6385109388
position_covariance: [0.027889000000000004, 0.0, 0.0, 0.0, 0.027889000000000004, 0.0, 0.0, 0.0, 0.044944]
position_covariance_type: 2
---
header: 
  seq: 81
  stamp: 
    secs: 1558789192
    nsecs:  34096513
  frame_id: "base_link"
status: 
  status: 0
  service: 1
latitude: 51.4824391
longitude: -0.2180427
altitude: 54.6415107017
position_covariance: [0.027889000000000004, 0.0, 0.0, 0.0, 0.027889000000000004, 0.0, 0.0, 0.0, 0.044944]
position_covariance_type: 2
---
header: 
  seq: 82
  stamp: 
    secs: 1558789192
    nsecs: 136808568
  frame_id: "base_link"
status: 
  status: 0
  service: 1
latitude: 51.4824391
longitude: -0.2180427
altitude: 54.6475107017
position_covariance: [0.027889000000000004, 0.0, 0.0, 0.0, 0.027889000000000004, 0.0, 0.0, 0.0, 0.044521]
position_covariance_type: 2
---
header: 
  seq: 83
  stamp: 
    secs: 1558789192
    nsecs: 236389802
  frame_id: "base_link"
status: 
  status: 0
  service: 1
latitude: 51.4824391
longitude: -0.2180426
altitude: 54.6535105863
position_covariance: [0.027889000000000004, 0.0, 0.0, 0.0, 0.027889000000000004, 0.0, 0.0, 0.0, 0.044521]
position_covariance_type: 2
---
header: 
  seq: 84
  stamp: 
    secs: 1558789192
    nsecs: 339179896
  frame_id: "base_link"
status: 
  status: 0
  service: 1
latitude: 51.482439
longitude: -0.2180426
altitude: 54.6585104646
position_covariance: [0.028224000000000003, 0.0, 0.0, 0.0, 0.028224000000000003, 0.0, 0.0, 0.0, 0.044944]
position_covariance_type: 2
---
header: 
  seq: 85
  stamp: 
    secs: 1558789192
    nsecs: 435217628
  frame_id: "base_link"
status: 
  status: 0
  service: 1
latitude: 51.482439
longitude: -0.2180425
altitude: 54.6645103492
position_covariance: [0.028224000000000003, 0.0, 0.0, 0.0, 0.028224000000000003, 0.0, 0.0, 0.0, 0.044944]
position_covariance_type: 2
---
header: 
  seq: 86
  stamp: 
    secs: 1558789192
    nsecs: 535002392
  frame_id: "base_link"
status: 
  status: 0
  service: 1
latitude: 51.482439
longitude: -0.2180424
altitude: 54.6695102338
position_covariance: [0.028224000000000003, 0.0, 0.0, 0.0, 0.028224000000000003, 0.0, 0.0, 0.0, 0.044944]
position_covariance_type: 2
---
header: 
  seq: 87
  stamp: 
    secs: 1558789192
    nsecs: 635283014
  frame_id: "base_link"
status: 
  status: 0
  service: 1
latitude: 51.482439
longitude: -0.2180424
altitude: 54.6755102338
position_covariance: [0.028224000000000003, 0.0, 0.0, 0.0, 0.028224000000000003, 0.0, 0.0, 0.0, 0.044944]
position_covariance_type: 2
---
header: 
  seq: 88
  stamp: 
    secs: 1558789192
    nsecs: 735760230
  frame_id: "base_link"
status: 
  status: 0
  service: 1
latitude: 51.4824389
longitude: -0.2180423
altitude: 54.6785099967
position_covariance: [0.028224000000000003, 0.0, 0.0, 0.0, 0.028224000000000003, 0.0, 0.0, 0.0, 0.044944]
position_covariance_type: 2
---
header: 
  seq: 89
  stamp: 
    secs: 1558789192
    nsecs: 836644222
  frame_id: "base_link"
status: 
  status: 0
  service: 1
latitude: 51.4824389
longitude: -0.2180423
altitude: 54.6785099967
position_covariance: [0.028224000000000003, 0.0, 0.0, 0.0, 0.028224000000000003, 0.0, 0.0, 0.0, 0.044944]
position_covariance_type: 2
---
header: 
  seq: 90
  stamp: 
    secs: 1558789192
    nsecs: 936720289
  frame_id: "base_link"
status: 
  status: 0
  service: 1
latitude: 51.4824389
longitude: -0.2180423
altitude: 54.6775099967
position_covariance: [0.027889000000000004, 0.0, 0.0, 0.0, 0.027889000000000004, 0.0, 0.0, 0.0, 0.044521]
position_covariance_type: 2
---
header: 
  seq: 91
  stamp: 
    secs: 1558789193
    nsecs:  35853226
  frame_id: "base_link"
status: 
  status: 0
  service: 1
latitude: 51.4824388
longitude: -0.2180422
altitude: 54.6785097597
position_covariance: [0.027889000000000004, 0.0, 0.0, 0.0, 0.027889000000000004, 0.0, 0.0, 0.0, 0.044521]
position_covariance_type: 2
---
header: 
  seq: 92
  stamp: 
    secs: 1558789193
    nsecs: 137108379
  frame_id: "base_link"
status: 
  status: 0
  service: 1
latitude: 51.4824388
longitude: -0.2180422
altitude: 54.6805097597
position_covariance: [0.027889000000000004, 0.0, 0.0, 0.0, 0.027889000000000004, 0.0, 0.0, 0.0, 0.04409999999999999]
position_covariance_type: 2
---
header: 
  seq: 93
  stamp: 
    secs: 1558789193
    nsecs: 234460622
  frame_id: "base_link"
status: 
  status: 0
  service: 1
latitude: 51.4824388
longitude: -0.2180422
altitude: 54.6805097597
position_covariance: [0.027889000000000004, 0.0, 0.0, 0.0, 0.027889000000000004, 0.0, 0.0, 0.0, 0.04409999999999999]
position_covariance_type: 2
---
header: 
  seq: 94
  stamp: 
    secs: 1558789193
    nsecs: 333865612
  frame_id: "base_link"
status: 
  status: 0
  service: 1
latitude: 51.4824388
longitude: -0.2180421
altitude: 54.6775096443
position_covariance: [0.027889000000000004, 0.0, 0.0, 0.0, 0.027889000000000004, 0.0, 0.0, 0.0, 0.04409999999999999]
position_covariance_type: 2
---
header: 
  seq: 95
  stamp: 
    secs: 1558789193
    nsecs: 434305017
  frame_id: "base_link"
status: 
  status: 0
  service: 1
latitude: 51.4824387
longitude: -0.218042
altitude: 54.6765094072
position_covariance: [0.027889000000000004, 0.0, 0.0, 0.0, 0.027889000000000004, 0.0, 0.0, 0.0, 0.04409999999999999]
position_covariance_type: 2
---
header: 
  seq: 96
  stamp: 
    secs: 1558789193
    nsecs: 536514772
  frame_id: "base_link"
status: 
  status: 0
  service: 1
latitude: 51.4824387
longitude: -0.218042
altitude: 54.6775094072
position_covariance: [0.027889000000000004, 0.0, 0.0, 0.0, 0.027889000000000004, 0.0, 0.0, 0.0, 0.043681]
position_covariance_type: 2
---
header: 
  seq: 97
  stamp: 
    secs: 1558789193
    nsecs: 636190883
  frame_id: "base_link"
status: 
  status: 0
  service: 1
latitude: 51.4824387
longitude: -0.2180419
altitude: 54.6785092918
position_covariance: [0.027889000000000004, 0.0, 0.0, 0.0, 0.027889000000000004, 0.0, 0.0, 0.0, 0.043681]
position_covariance_type: 2
---
header: 
  seq: 98
  stamp: 
    secs: 1558789193
    nsecs: 736453929
  frame_id: "base_link"
status: 
  status: 0
  service: 1
latitude: 51.4824386
longitude: -0.2180419
altitude: 54.6825091701
position_covariance: [0.027889000000000004, 0.0, 0.0, 0.0, 0.027889000000000004, 0.0, 0.0, 0.0, 0.04409999999999999]
position_covariance_type: 2
---
header: 
  seq: 99
  stamp: 
    secs: 1558789193
    nsecs: 835896960
  frame_id: "base_link"
status: 
  status: 0
  service: 1
latitude: 51.4824386
longitude: -0.2180419
altitude: 54.6855091701
position_covariance: [0.027889000000000004, 0.0, 0.0, 0.0, 0.027889000000000004, 0.0, 0.0, 0.0, 0.04409999999999999]
position_covariance_type: 2
---
header: 
  seq: 100
  stamp: 
    secs: 1558789193
    nsecs: 935459882
  frame_id: "base_link"
status: 
  status: 0
  service: 1
latitude: 51.4824386
longitude: -0.2180418
altitude: 54.6895090547
position_covariance: [0.027225000000000003, 0.0, 0.0, 0.0, 0.027225000000000003, 0.0, 0.0, 0.0, 0.042849]
position_covariance_type: 2
---
header: 
  seq: 101
  stamp: 
    secs: 1558789194
    nsecs:  35248841
  frame_id: "base_link"
status: 
  status: 0
  service: 1
latitude: 51.4824386
longitude: -0.2180418
altitude: 54.6945090547
position_covariance: [0.027225000000000003, 0.0, 0.0, 0.0, 0.027225000000000003, 0.0, 0.0, 0.0, 0.042849]
position_covariance_type: 2
---
header: 
  seq: 102
  stamp: 
    secs: 1558789194
    nsecs: 137217283
  frame_id: "base_link"
status: 
  status: 0
  service: 1
latitude: 51.4824386
longitude: -0.2180417
altitude: 54.6995089393
position_covariance: [0.027225000000000003, 0.0, 0.0, 0.0, 0.027225000000000003, 0.0, 0.0, 0.0, 0.042435999999999995]
position_covariance_type: 2
---
header: 
  seq: 103
  stamp: 
    secs: 1558789194
    nsecs: 236867450
  frame_id: "base_link"
status: 
  status: 0
  service: 1
latitude: 51.4824386
longitude: -0.2180416
altitude: 54.7035088239
position_covariance: [0.027225000000000003, 0.0, 0.0, 0.0, 0.027225000000000003, 0.0, 0.0, 0.0, 0.042435999999999995]
position_covariance_type: 2
---
header: 
  seq: 104
  stamp: 
    secs: 1558789194
    nsecs: 334559601
  frame_id: "base_link"
status: 
  status: 0
  service: 1
latitude: 51.4824386
longitude: -0.2180415
altitude: 54.7055087085
position_covariance: [0.027225000000000003, 0.0, 0.0, 0.0, 0.027225000000000003, 0.0, 0.0, 0.0, 0.042435999999999995]
position_covariance_type: 2
---
header: 
  seq: 105
  stamp: 
    secs: 1558789194
    nsecs: 437841527
  frame_id: "base_link"
status: 
  status: 0
  service: 1
latitude: 51.4824386
longitude: -0.2180414
altitude: 54.7065085931
position_covariance: [0.027225000000000003, 0.0, 0.0, 0.0, 0.027225000000000003, 0.0, 0.0, 0.0, 0.042435999999999995]
position_covariance_type: 2
---
header: 
  seq: 106
  stamp: 
    secs: 1558789194
    nsecs: 535923316
  frame_id: "base_link"
status: 
  status: 0
  service: 1
latitude: 51.4824386
longitude: -0.2180413
altitude: 54.7075084777
position_covariance: [0.027225000000000003, 0.0, 0.0, 0.0, 0.027225000000000003, 0.0, 0.0, 0.0, 0.042435999999999995]
position_covariance_type: 2
---
header: 
  seq: 107
  stamp: 
    secs: 1558789194
    nsecs: 634560432
  frame_id: "base_link"
status: 
  status: 0
  service: 1
latitude: 51.4824387
longitude: -0.2180412
altitude: 54.7075084839
position_covariance: [0.027225000000000003, 0.0, 0.0, 0.0, 0.027225000000000003, 0.0, 0.0, 0.0, 0.042435999999999995]
position_covariance_type: 2
---
header: 
  seq: 108
  stamp: 
    secs: 1558789194
    nsecs: 735087818
  frame_id: "base_link"
status: 
  status: 0
  service: 1
latitude: 51.4824387
longitude: -0.2180412
altitude: 54.7055084839
position_covariance: [0.027556000000000004, 0.0, 0.0, 0.0, 0.027556000000000004, 0.0, 0.0, 0.0, 0.043264]
position_covariance_type: 2
---
header: 
  seq: 109
  stamp: 
    secs: 1558789194
    nsecs: 834317712
  frame_id: "base_link"
status: 
  status: 0
  service: 1
latitude: 51.4824387
longitude: -0.2180411
altitude: 54.7025083685
position_covariance: [0.027556000000000004, 0.0, 0.0, 0.0, 0.027556000000000004, 0.0, 0.0, 0.0, 0.043264]
position_covariance_type: 2
---
header: 
  seq: 110
  stamp: 
    secs: 1558789194
    nsecs: 935112561
  frame_id: "base_link"
status: 
  status: 0
  service: 1
latitude: 51.4824387
longitude: -0.218041
altitude: 54.7045082531
position_covariance: [0.027225000000000003, 0.0, 0.0, 0.0, 0.027225000000000003, 0.0, 0.0, 0.0, 0.042435999999999995]
position_covariance_type: 2
---
header: 
  seq: 111
  stamp: 
    secs: 1558789195
    nsecs:  37143571
  frame_id: "base_link"
status: 
  status: 0
  service: 1
latitude: 51.4824387
longitude: -0.2180408
altitude: 54.7095080223
position_covariance: [0.027225000000000003, 0.0, 0.0, 0.0, 0.027225000000000003, 0.0, 0.0, 0.0, 0.042435999999999995]
position_covariance_type: 2
---
header: 
  seq: 112
  stamp: 
    secs: 1558789195
    nsecs: 135760150
  frame_id: "base_link"
status: 
  status: 0
  service: 1
latitude: 51.4824387
longitude: -0.2180407
altitude: 54.7115079069
position_covariance: [0.027556000000000004, 0.0, 0.0, 0.0, 0.027556000000000004, 0.0, 0.0, 0.0, 0.042435999999999995]
position_covariance_type: 2
---
header: 
  seq: 113
  stamp: 
    secs: 1558789195
    nsecs: 237479321
  frame_id: "base_link"
status: 
  status: 0
  service: 1
latitude: 51.4824388
longitude: -0.2180405
altitude: 54.7115077977
position_covariance: [0.027556000000000004, 0.0, 0.0, 0.0, 0.027556000000000004, 0.0, 0.0, 0.0, 0.042435999999999995]
position_covariance_type: 2
---
header: 
  seq: 114
  stamp: 
    secs: 1558789195
    nsecs: 335028911
  frame_id: "base_link"
status: 
  status: 0
  service: 1
latitude: 51.4824388
longitude: -0.2180404
altitude: 54.7115076823
position_covariance: [0.027889000000000004, 0.0, 0.0, 0.0, 0.027889000000000004, 0.0, 0.0, 0.0, 0.042849]
position_covariance_type: 2
---
header: 
  seq: 115
  stamp: 
    secs: 1558789195
    nsecs: 434918180
  frame_id: "base_link"
status: 
  status: 0
  service: 1
latitude: 51.4824388
longitude: -0.2180402
altitude: 54.7125074515
position_covariance: [0.027889000000000004, 0.0, 0.0, 0.0, 0.027889000000000004, 0.0, 0.0, 0.0, 0.042849]
position_covariance_type: 2
---
header: 
  seq: 116
  stamp: 
    secs: 1558789195
    nsecs: 534530435
  frame_id: "base_link"
status: 
  status: 0
  service: 1
latitude: 51.4824388
longitude: -0.2180401
altitude: 54.715507336
position_covariance: [0.027889000000000004, 0.0, 0.0, 0.0, 0.027889000000000004, 0.0, 0.0, 0.0, 0.042849]
position_covariance_type: 2
---
header: 
  seq: 117
  stamp: 
    secs: 1558789195
    nsecs: 634973688
  frame_id: "base_link"
status: 
  status: 0
  service: 1
latitude: 51.4824388
longitude: -0.2180399
altitude: 54.7195071052
position_covariance: [0.027889000000000004, 0.0, 0.0, 0.0, 0.027889000000000004, 0.0, 0.0, 0.0, 0.042849]
position_covariance_type: 2
---
header: 
  seq: 118
  stamp: 
    secs: 1558789195
    nsecs: 737835626
  frame_id: "base_link"
status: 
  status: 0
  service: 1
latitude: 51.4824388
longitude: -0.2180398
altitude: 54.7245069898
position_covariance: [0.027225000000000003, 0.0, 0.0, 0.0, 0.027225000000000003, 0.0, 0.0, 0.0, 0.042435999999999995]
position_covariance_type: 2
---
header: 
  seq: 119
  stamp: 
    secs: 1558789195
    nsecs: 834026871
  frame_id: "base_link"
status: 
  status: 0
  service: 1
latitude: 51.4824388
longitude: -0.2180396
altitude: 54.726506759
position_covariance: [0.027225000000000003, 0.0, 0.0, 0.0, 0.027225000000000003, 0.0, 0.0, 0.0, 0.042435999999999995]
position_covariance_type: 2
---
header: 
  seq: 120
  stamp: 
    secs: 1558789195
    nsecs: 937468000
  frame_id: "base_link"
status: 
  status: 0
  service: 1
latitude: 51.4824388
longitude: -0.2180395
altitude: 54.7305066436
position_covariance: [0.029583999999999996, 0.0, 0.0, 0.0, 0.029583999999999996, 0.0, 0.0, 0.0, 0.04202499999999999]
position_covariance_type: 2
---
header: 
  seq: 121
  stamp: 
    secs: 1558789196
    nsecs:  35478436
  frame_id: "base_link"
status: 
  status: 0
  service: 1
latitude: 51.4824388
longitude: -0.2180393
altitude: 54.7325064128
position_covariance: [0.029583999999999996, 0.0, 0.0, 0.0, 0.029583999999999996, 0.0, 0.0, 0.0, 0.04202499999999999]
position_covariance_type: 2
---
header: 
  seq: 122
  stamp: 
    secs: 1558789196
    nsecs: 135450169
  frame_id: "base_link"
status: 
  status: 0
  service: 1
latitude: 51.4824388
longitude: -0.2180392
altitude: 54.7325062974
position_covariance: [0.030275999999999997, 0.0, 0.0, 0.0, 0.030275999999999997, 0.0, 0.0, 0.0, 0.04202499999999999]
position_covariance_type: 2
---
header: 
  seq: 123
  stamp: 
    secs: 1558789196
    nsecs: 234123724
  frame_id: "base_link"
status: 
  status: 0
  service: 1
latitude: 51.4824389
longitude: -0.218039
altitude: 54.7315061882
position_covariance: [0.030275999999999997, 0.0, 0.0, 0.0, 0.030275999999999997, 0.0, 0.0, 0.0, 0.04202499999999999]
position_covariance_type: 2
---
header: 
  seq: 124
  stamp: 
    secs: 1558789196
    nsecs: 337984776
  frame_id: "base_link"
status: 
  status: 0
  service: 1
latitude: 51.4824389
longitude: -0.2180388
altitude: 54.7335059574
position_covariance: [0.029928999999999997, 0.0, 0.0, 0.0, 0.029928999999999997, 0.0, 0.0, 0.0, 0.04161599999999999]
position_covariance_type: 2
---
header: 
  seq: 125
  stamp: 
    secs: 1558789196
    nsecs: 433861970
  frame_id: "base_link"
status: 
  status: 0
  service: 1
latitude: 51.4824389
longitude: -0.2180386
altitude: 54.7355057265
position_covariance: [0.029928999999999997, 0.0, 0.0, 0.0, 0.029928999999999997, 0.0, 0.0, 0.0, 0.04161599999999999]
position_covariance_type: 2
---
header: 
  seq: 126
  stamp: 
    secs: 1558789196
    nsecs: 537202825
  frame_id: "base_link"
status: 
  status: 0
  service: 1
latitude: 51.4824389
longitude: -0.2180384
altitude: 54.7365054957
position_covariance: [0.029928999999999997, 0.0, 0.0, 0.0, 0.029928999999999997, 0.0, 0.0, 0.0, 0.04161599999999999]
position_covariance_type: 2
---
header: 
  seq: 127
  stamp: 
    secs: 1558789196
    nsecs: 634012240
  frame_id: "base_link"
status: 
  status: 0
  service: 1
latitude: 51.4824389
longitude: -0.2180382
altitude: 54.7345052649
position_covariance: [0.029928999999999997, 0.0, 0.0, 0.0, 0.029928999999999997, 0.0, 0.0, 0.0, 0.04161599999999999]
position_covariance_type: 2
---
header: 
  seq: 128
  stamp: 
    secs: 1558789196
    nsecs: 736587116
  frame_id: "base_link"
status: 
  status: 0
  service: 1
latitude: 51.4824389
longitude: -0.2180381
altitude: 54.7355051495
position_covariance: [0.029928999999999997, 0.0, 0.0, 0.0, 0.029928999999999997, 0.0, 0.0, 0.0, 0.04161599999999999]
position_covariance_type: 2
---
header: 
  seq: 129
  stamp: 
    secs: 1558789196
    nsecs: 834988928
  frame_id: "base_link"
status: 
  status: 0
  service: 1
latitude: 51.4824389
longitude: -0.2180379
altitude: 54.7375049187
position_covariance: [0.029928999999999997, 0.0, 0.0, 0.0, 0.029928999999999997, 0.0, 0.0, 0.0, 0.04161599999999999]
position_covariance_type: 2
---
header: 
  seq: 130
  stamp: 
    secs: 1558789196
    nsecs: 935499846
  frame_id: "base_link"
status: 
  status: 0
  service: 1
latitude: 51.482439
longitude: -0.2180377
altitude: 54.7425048095
position_covariance: [0.026569000000000002, 0.0, 0.0, 0.0, 0.026569000000000002, 0.0, 0.0, 0.0, 0.039601000000000004]
position_covariance_type: 2
---
header: 
  seq: 131
  stamp: 
    secs: 1558789197
    nsecs:  34872006
  frame_id: "base_link"
status: 
  status: 0
  service: 1
latitude: 51.482439
longitude: -0.2180376
altitude: 54.7455046941
position_covariance: [0.026569000000000002, 0.0, 0.0, 0.0, 0.026569000000000002, 0.0, 0.0, 0.0, 0.039601000000000004]
position_covariance_type: 2
---
header: 
  seq: 132
  stamp: 
    secs: 1558789197
    nsecs: 136595793
  frame_id: "base_link"
status: 
  status: 0
  service: 1
latitude: 51.482439
longitude: -0.2180374
altitude: 54.7465044633
position_covariance: [0.025921000000000003, 0.0, 0.0, 0.0, 0.025921000000000003, 0.0, 0.0, 0.0, 0.039601000000000004]
position_covariance_type: 2
---
header: 
  seq: 133
  stamp: 
    secs: 1558789197
    nsecs: 235028360
  frame_id: "base_link"
status: 
  status: 0
  service: 1
latitude: 51.482439
longitude: -0.2180373
altitude: 54.7465043479
position_covariance: [0.025921000000000003, 0.0, 0.0, 0.0, 0.025921000000000003, 0.0, 0.0, 0.0, 0.039601000000000004]
position_covariance_type: 2
---
header: 
  seq: 134
  stamp: 
    secs: 1558789197
    nsecs: 336989836
  frame_id: "base_link"
status: 
  status: 0
  service: 1
latitude: 51.482439
longitude: -0.2180371
altitude: 54.748504117
position_covariance: [0.0256, 0.0, 0.0, 0.0, 0.0256, 0.0, 0.0, 0.0, 0.039601000000000004]
position_covariance_type: 2
---
header: 
  seq: 135
  stamp: 
    secs: 1558789197
    nsecs: 435288823
  frame_id: "base_link"
status: 
  status: 0
  service: 1
latitude: 51.482439
longitude: -0.218037
altitude: 54.7485040016
position_covariance: [0.0256, 0.0, 0.0, 0.0, 0.0256, 0.0, 0.0, 0.0, 0.039601000000000004]
position_covariance_type: 2
---
header: 
  seq: 136
  stamp: 
    secs: 1558789197
    nsecs: 536426357
  frame_id: "base_link"
status: 
  status: 0
  service: 1
latitude: 51.482439
longitude: -0.2180368
altitude: 54.7455037708
position_covariance: [0.0256, 0.0, 0.0, 0.0, 0.0256, 0.0, 0.0, 0.0, 0.039601000000000004]
position_covariance_type: 2
---
header: 
  seq: 137
  stamp: 
    secs: 1558789197
    nsecs: 634989598
  frame_id: "base_link"
status: 
  status: 0
  service: 1
latitude: 51.4824391
longitude: -0.2180367
altitude: 54.7415037771
position_covariance: [0.0256, 0.0, 0.0, 0.0, 0.0256, 0.0, 0.0, 0.0, 0.039601000000000004]
position_covariance_type: 2
---
header: 
  seq: 138
  stamp: 
    secs: 1558789197
    nsecs: 735551804
  frame_id: "base_link"
status: 
  status: 0
  service: 1
latitude: 51.4824391
longitude: -0.2180365
altitude: 54.7395035462
position_covariance: [0.0256, 0.0, 0.0, 0.0, 0.0256, 0.0, 0.0, 0.0, 0.039601000000000004]
position_covariance_type: 2
---
header: 
  seq: 139
  stamp: 
    secs: 1558789197
    nsecs: 837331774
  frame_id: "base_link"
status: 
  status: 0
  service: 1
latitude: 51.4824391
longitude: -0.2180364
altitude: 54.7395034308
position_covariance: [0.0256, 0.0, 0.0, 0.0, 0.0256, 0.0, 0.0, 0.0, 0.039601000000000004]
position_covariance_type: 2
---
header: 
  seq: 140
  stamp: 
    secs: 1558789197
    nsecs: 937202025
  frame_id: "base_link"
status: 
  status: 0
  service: 1
latitude: 51.4824391
longitude: -0.2180363
altitude: 54.7395033154
position_covariance: [0.025281, 0.0, 0.0, 0.0, 0.025281, 0.0, 0.0, 0.0, 0.038809]
position_covariance_type: 2
---
header: 
  seq: 141
  stamp: 
    secs: 1558789198
    nsecs:  36791523
  frame_id: "base_link"
status: 
  status: 0
  service: 1
latitude: 51.4824391
longitude: -0.2180361
altitude: 54.7375030846
position_covariance: [0.025281, 0.0, 0.0, 0.0, 0.025281, 0.0, 0.0, 0.0, 0.038809]
position_covariance_type: 2
---
header: 
  seq: 142
  stamp: 
    secs: 1558789198
    nsecs: 135935640
  frame_id: "base_link"
status: 
  status: 0
  service: 1
latitude: 51.4824392
longitude: -0.218036
altitude: 54.7355030908
position_covariance: [0.025281, 0.0, 0.0, 0.0, 0.025281, 0.0, 0.0, 0.0, 0.038809]
position_covariance_type: 2
---
header: 
  seq: 143
  stamp: 
    secs: 1558789198
    nsecs: 236389628
  frame_id: "base_link"
status: 
  status: 0
  service: 1
latitude: 51.4824392
longitude: -0.2180358
altitude: 54.73050286
position_covariance: [0.025281, 0.0, 0.0, 0.0, 0.025281, 0.0, 0.0, 0.0, 0.038809]
position_covariance_type: 2
---
header: 
  seq: 144
  stamp: 
    secs: 1558789198
    nsecs: 336393535
  frame_id: "base_link"
status: 
  status: 0
  service: 1
latitude: 51.4824392
longitude: -0.2180357
altitude: 54.7275027446
position_covariance: [0.025281, 0.0, 0.0, 0.0, 0.025281, 0.0, 0.0, 0.0, 0.038416000000000006]
position_covariance_type: 2
---
header: 
  seq: 145
  stamp: 
    secs: 1558789198
    nsecs: 434663991
  frame_id: "base_link"
status: 
  status: 0
  service: 1
latitude: 51.4824393
longitude: -0.2180356
altitude: 54.7235027509
position_covariance: [0.025281, 0.0, 0.0, 0.0, 0.025281, 0.0, 0.0, 0.0, 0.038416000000000006]
position_covariance_type: 2
---
header: 
  seq: 146
  stamp: 
    secs: 1558789198
    nsecs: 534188966
  frame_id: "base_link"
status: 
  status: 0
  service: 1
latitude: 51.4824393
longitude: -0.2180355
altitude: 54.7225026354
position_covariance: [0.025281, 0.0, 0.0, 0.0, 0.025281, 0.0, 0.0, 0.0, 0.038809]
position_covariance_type: 2
---
header: 
  seq: 147
  stamp: 
    secs: 1558789198
    nsecs: 634174049
  frame_id: "base_link"
status: 
  status: 0
  service: 1
latitude: 51.4824393
longitude: -0.2180355
altitude: 54.7205026354
position_covariance: [0.025281, 0.0, 0.0, 0.0, 0.025281, 0.0, 0.0, 0.0, 0.038809]
position_covariance_type: 2
---
header: 
  seq: 148
  stamp: 
    secs: 1558789198
    nsecs: 734106618
  frame_id: "base_link"
status: 
  status: 0
  service: 1
latitude: 51.4824394
longitude: -0.2180354
altitude: 54.7215026417
position_covariance: [0.025281, 0.0, 0.0, 0.0, 0.025281, 0.0, 0.0, 0.0, 0.038809]
position_covariance_type: 2
---
header: 
  seq: 149
  stamp: 
    secs: 1558789198
    nsecs: 837291887
  frame_id: "base_link"
status: 
  status: 0
  service: 1
latitude: 51.4824394
longitude: -0.2180353
altitude: 54.7205025263
position_covariance: [0.025281, 0.0, 0.0, 0.0, 0.025281, 0.0, 0.0, 0.0, 0.038809]
position_covariance_type: 2
---
header: 
  seq: 150
  stamp: 
    secs: 1558789198
    nsecs: 934978626
  frame_id: "base_link"
status: 
  status: 0
  service: 1
latitude: 51.4824394
longitude: -0.2180352
altitude: 54.7165024109
position_covariance: [0.024964, 0.0, 0.0, 0.0, 0.024964, 0.0, 0.0, 0.0, 0.038025]
position_covariance_type: 2
---
header: 
  seq: 151
  stamp: 
    secs: 1558789199
    nsecs:  35891886
  frame_id: "base_link"
status: 
  status: 0
  service: 1
latitude: 51.4824395
longitude: -0.2180352
altitude: 54.7125025325
position_covariance: [0.024964, 0.0, 0.0, 0.0, 0.024964, 0.0, 0.0, 0.0, 0.038025]
position_covariance_type: 2
---
header: 
  seq: 152
  stamp: 
    secs: 1558789199
    nsecs: 134797718
  frame_id: "base_link"
status: 
  status: 0
  service: 1
latitude: 51.4824395
longitude: -0.2180351
altitude: 54.7095024171
position_covariance: [0.024649, 0.0, 0.0, 0.0, 0.024649, 0.0, 0.0, 0.0, 0.037636]
position_covariance_type: 2
---
header: 
  seq: 153
  stamp: 
    secs: 1558789199
    nsecs: 235780582
  frame_id: "base_link"
status: 
  status: 0
  service: 1
latitude: 51.4824395
longitude: -0.218035
altitude: 54.7045023017
position_covariance: [0.024649, 0.0, 0.0, 0.0, 0.024649, 0.0, 0.0, 0.0, 0.037636]
position_covariance_type: 2
---
header: 
  seq: 154
  stamp: 
    secs: 1558789199
    nsecs: 334870911
  frame_id: "base_link"
status: 
  status: 0
  service: 1
latitude: 51.4824396
longitude: -0.218035
altitude: 54.6995024234
position_covariance: [0.024649, 0.0, 0.0, 0.0, 0.024649, 0.0, 0.0, 0.0, 0.037636]
position_covariance_type: 2
---
header: 
  seq: 155
  stamp: 
    secs: 1558789199
    nsecs: 435184086
  frame_id: "base_link"
status: 
  status: 0
  service: 1
latitude: 51.4824396
longitude: -0.2180349
altitude: 54.696502308
position_covariance: [0.024649, 0.0, 0.0, 0.0, 0.024649, 0.0, 0.0, 0.0, 0.037636]
position_covariance_type: 2
---
header: 
  seq: 156
  stamp: 
    secs: 1558789199
    nsecs: 536905784
  frame_id: "base_link"
status: 
  status: 0
  service: 1
latitude: 51.4824396
longitude: -0.2180348
altitude: 54.6935021925
position_covariance: [0.024649, 0.0, 0.0, 0.0, 0.024649, 0.0, 0.0, 0.0, 0.038025]
position_covariance_type: 2
---
header: 
  seq: 157
  stamp: 
    secs: 1558789199
    nsecs: 634025820
  frame_id: "base_link"
status: 
  status: 0
  service: 1
latitude: 51.4824397
longitude: -0.2180348
altitude: 54.6915023142
position_covariance: [0.024649, 0.0, 0.0, 0.0, 0.024649, 0.0, 0.0, 0.0, 0.038025]
position_covariance_type: 2
---
header: 
  seq: 158
  stamp: 
    secs: 1558789199
    nsecs: 735665623
  frame_id: "base_link"
status: 
  status: 0
  service: 1
latitude: 51.4824397
longitude: -0.2180348
altitude: 54.6915023142
position_covariance: [0.024649, 0.0, 0.0, 0.0, 0.024649, 0.0, 0.0, 0.0, 0.038025]
position_covariance_type: 2
---
header: 
  seq: 159
  stamp: 
    secs: 1558789199
    nsecs: 835331055
  frame_id: "base_link"
status: 
  status: 0
  service: 1
latitude: 51.4824397
longitude: -0.2180347
altitude: 54.6905021988
position_covariance: [0.024649, 0.0, 0.0, 0.0, 0.024649, 0.0, 0.0, 0.0, 0.038025]
position_covariance_type: 2
---
header: 
  seq: 160
  stamp: 
    secs: 1558789199
    nsecs: 938736072
  frame_id: "base_link"
status: 
  status: 0
  service: 1
latitude: 51.4824397
longitude: -0.2180346
altitude: 54.6875020834
position_covariance: [0.024336, 0.0, 0.0, 0.0, 0.024336, 0.0, 0.0, 0.0, 0.037249000000000004]
position_covariance_type: 2
---
header: 
  seq: 161
  stamp: 
    secs: 1558789200
    nsecs:  33597684
  frame_id: "base_link"
status: 
  status: 0
  service: 1
latitude: 51.4824398
longitude: -0.2180345
altitude: 54.6855020896
position_covariance: [0.024336, 0.0, 0.0, 0.0, 0.024336, 0.0, 0.0, 0.0, 0.037249000000000004]
position_covariance_type: 2
---
header: 
  seq: 162
  stamp: 
    secs: 1558789200
    nsecs: 135223868
  frame_id: "base_link"
status: 
  status: 0
  service: 1
latitude: 51.4824398
longitude: -0.2180344
altitude: 54.6845019742
position_covariance: [0.024336, 0.0, 0.0, 0.0, 0.024336, 0.0, 0.0, 0.0, 0.036864]
position_covariance_type: 2
---
header: 
  seq: 163
  stamp: 
    secs: 1558789200
    nsecs: 234104928
  frame_id: "base_link"
status: 
  status: 0
  service: 1
latitude: 51.4824398
longitude: -0.2180343
altitude: 54.6795018588
position_covariance: [0.024336, 0.0, 0.0, 0.0, 0.024336, 0.0, 0.0, 0.0, 0.036864]
position_covariance_type: 2
---
header: 
  seq: 164
  stamp: 
    secs: 1558789200
    nsecs: 336304735
  frame_id: "base_link"
status: 
  status: 0
  service: 1
latitude: 51.4824399
longitude: -0.2180342
altitude: 54.6775018651
position_covariance: [0.024336, 0.0, 0.0, 0.0, 0.024336, 0.0, 0.0, 0.0, 0.037249000000000004]
position_covariance_type: 2
---
header: 
  seq: 165
  stamp: 
    secs: 1558789200
    nsecs: 436534855
  frame_id: "base_link"
status: 
  status: 0
  service: 1
latitude: 51.4824399
longitude: -0.2180342
altitude: 54.6765018651
position_covariance: [0.024336, 0.0, 0.0, 0.0, 0.024336, 0.0, 0.0, 0.0, 0.037249000000000004]
position_covariance_type: 2
---
header: 
  seq: 166
  stamp: 
    secs: 1558789200
    nsecs: 535536060
  frame_id: "base_link"
status: 
  status: 0
  service: 1
latitude: 51.4824399
longitude: -0.2180341
altitude: 54.6765017496
position_covariance: [0.024336, 0.0, 0.0, 0.0, 0.024336, 0.0, 0.0, 0.0, 0.037249000000000004]
position_covariance_type: 2
---
header: 
  seq: 167
  stamp: 
    secs: 1558789200
    nsecs: 635884877
  frame_id: "base_link"
status: 
  status: 0
  service: 1
latitude: 51.48244
longitude: -0.218034
altitude: 54.6775017559
position_covariance: [0.024336, 0.0, 0.0, 0.0, 0.024336, 0.0, 0.0, 0.0, 0.037249000000000004]
position_covariance_type: 2
---
header: 
  seq: 168
  stamp: 
    secs: 1558789200
    nsecs: 734539321
  frame_id: "base_link"
status: 
  status: 0
  service: 1
latitude: 51.48244
longitude: -0.218034
altitude: 54.6795017559
position_covariance: [0.024336, 0.0, 0.0, 0.0, 0.024336, 0.0, 0.0, 0.0, 0.037249000000000004]
position_covariance_type: 2
---
header: 
  seq: 169
  stamp: 
    secs: 1558789200
    nsecs: 833783708
  frame_id: "base_link"
status: 
  status: 0
  service: 1
latitude: 51.48244
longitude: -0.2180339
altitude: 54.6835016405
position_covariance: [0.024336, 0.0, 0.0, 0.0, 0.024336, 0.0, 0.0, 0.0, 0.037249000000000004]
position_covariance_type: 2
---
header: 
  seq: 170
  stamp: 
    secs: 1558789200
    nsecs: 934796658
  frame_id: "base_link"
status: 
  status: 0
  service: 1
latitude: 51.48244
longitude: -0.2180339
altitude: 54.6875016405
position_covariance: [0.023716, 0.0, 0.0, 0.0, 0.023716, 0.0, 0.0, 0.0, 0.036481]
position_covariance_type: 2
---
header: 
  seq: 171
  stamp: 
    secs: 1558789201
    nsecs:  36040419
  frame_id: "base_link"
status: 
  status: 0
  service: 1
latitude: 51.48244
longitude: -0.2180338
altitude: 54.6935015251
position_covariance: [0.023716, 0.0, 0.0, 0.0, 0.023716, 0.0, 0.0, 0.0, 0.036481]
position_covariance_type: 2
---
header: 
  seq: 172
  stamp: 
    secs: 1558789201
    nsecs: 135912770
  frame_id: "base_link"
status: 
  status: 0
  service: 1
latitude: 51.48244
longitude: -0.2180337
altitude: 54.6975014097
position_covariance: [0.023716, 0.0, 0.0, 0.0, 0.023716, 0.0, 0.0, 0.0, 0.0361]
position_covariance_type: 2
---
header: 
  seq: 173
  stamp: 
    secs: 1558789201
    nsecs: 235644873
  frame_id: "base_link"
status: 
  status: 0
  service: 1
latitude: 51.48244
longitude: -0.2180337
altitude: 54.7015014097
position_covariance: [0.023716, 0.0, 0.0, 0.0, 0.023716, 0.0, 0.0, 0.0, 0.0361]
position_covariance_type: 2
---
header: 
  seq: 174
  stamp: 
    secs: 1558789201
    nsecs: 336001326
  frame_id: "base_link"
status: 
  status: 0
  service: 1
latitude: 51.48244
longitude: -0.2180337
altitude: 54.7035014097
position_covariance: [0.023716, 0.0, 0.0, 0.0, 0.023716, 0.0, 0.0, 0.0, 0.0361]
position_covariance_type: 2
---
header: 
  seq: 175
  stamp: 
    secs: 1558789201
    nsecs: 436804612
  frame_id: "base_link"
status: 
  status: 0
  service: 1
latitude: 51.4824401
longitude: -0.2180336
altitude: 54.7015014159
position_covariance: [0.023716, 0.0, 0.0, 0.0, 0.023716, 0.0, 0.0, 0.0, 0.0361]
position_covariance_type: 2
---
header: 
  seq: 176
  stamp: 
    secs: 1558789201
    nsecs: 535157337
  frame_id: "base_link"
status: 
  status: 0
  service: 1
latitude: 51.4824401
longitude: -0.2180336
altitude: 54.7005014159
position_covariance: [0.023716, 0.0, 0.0, 0.0, 0.023716, 0.0, 0.0, 0.0, 0.0361]
position_covariance_type: 2
---
header: 
  seq: 177
  stamp: 
    secs: 1558789201
    nsecs: 634601462
  frame_id: "base_link"
status: 
  status: 0
  service: 1
latitude: 51.4824401
longitude: -0.2180335
altitude: 54.6975013005
position_covariance: [0.023716, 0.0, 0.0, 0.0, 0.023716, 0.0, 0.0, 0.0, 0.0361]
position_covariance_type: 2
---
header: 
  seq: 178
  stamp: 
    secs: 1558789201
    nsecs: 733692707
  frame_id: "base_link"
status: 
  status: 0
  service: 1
latitude: 51.4824401
longitude: -0.2180335
altitude: 54.6955013005
position_covariance: [0.023716, 0.0, 0.0, 0.0, 0.023716, 0.0, 0.0, 0.0, 0.0361]
position_covariance_type: 2
---
header: 
  seq: 179
  stamp: 
    secs: 1558789201
    nsecs: 833721048
  frame_id: "base_link"
status: 
  status: 0
  service: 1
latitude: 51.4824401
longitude: -0.2180334
altitude: 54.6935011851
position_covariance: [0.023716, 0.0, 0.0, 0.0, 0.023716, 0.0, 0.0, 0.0, 0.0361]
position_covariance_type: 2
---
header: 
  seq: 180
  stamp: 
    secs: 1558789201
    nsecs: 935542441
  frame_id: "base_link"
status: 
  status: 0
  service: 1
latitude: 51.4824402
longitude: -0.2180334
altitude: 54.6925013067
position_covariance: [0.023409, 0.0, 0.0, 0.0, 0.023409, 0.0, 0.0, 0.0, 0.035344]
position_covariance_type: 2
---
header: 
  seq: 181
  stamp: 
    secs: 1558789202
    nsecs:  35044268
  frame_id: "base_link"
status: 
  status: 0
  service: 1
latitude: 51.4824402
longitude: -0.2180333
altitude: 54.6905011913
position_covariance: [0.023409, 0.0, 0.0, 0.0, 0.023409, 0.0, 0.0, 0.0, 0.035344]
position_covariance_type: 2
---
header: 
  seq: 182
  stamp: 
    secs: 1558789202
    nsecs: 136517381
  frame_id: "base_link"
status: 
  status: 0
  service: 1
latitude: 51.4824402
longitude: -0.2180333
altitude: 54.6845011913
