header: 
  seq: 2423
  stamp: 
    secs: 1558789551
    nsecs: 314016850
  frame_id: "base_link"
status: 
  status: 0
  service: 1
latitude: 51.4824438
longitude: -0.2180468
altitude: 53.5435211515
position_covariance: [0.0036, 0.0, 0.0, 0.0, 0.0036, 0.0, 0.0, 0.0, 0.003969]
position_covariance_type: 2
---
header: 
  seq: 2424
  stamp: 
    secs: 1558789551
    nsecs: 515545993
  frame_id: "base_link"
status: 
  status: 0
  service: 1
latitude: 51.4824437
longitude: -0.2180471
altitude: 53.5195213761
position_covariance: [0.0046240000000000005, 0.0, 0.0, 0.0, 0.0046240000000000005, 0.0, 0.0, 0.0, 0.0050409999999999995]
position_covariance_type: 2
---
header: 
  seq: 2425
  stamp: 
    secs: 1558789551
    nsecs: 711953074
  frame_id: "base_link"
status: 
  status: 0
  service: 1
latitude: 51.4824435
longitude: -0.2180468
altitude: 53.5525207865
position_covariance: [0.0046240000000000005, 0.0, 0.0, 0.0, 0.0046240000000000005, 0.0, 0.0, 0.0, 0.0050409999999999995]
position_covariance_type: 2
---
header: 
  seq: 2426
  stamp: 
    secs: 1558789551
    nsecs: 907067613
  frame_id: "base_link"
status: 
  status: 0
  service: 1
latitude: 51.4824436
longitude: -0.2180462
altitude: 53.6195202157
position_covariance: [0.0046240000000000005, 0.0, 0.0, 0.0, 0.0046240000000000005, 0.0, 0.0, 0.0, 0.0050409999999999995]
position_covariance_type: 2
---
header: 
  seq: 2427
  stamp: 
    secs: 1558789552
    nsecs: 121219346
  frame_id: "base_link"
status: 
  status: 0
  service: 1
latitude: 51.4824433
longitude: -0.2180464
altitude: 53.6245200816
position_covariance: [0.0046240000000000005, 0.0, 0.0, 0.0, 0.0046240000000000005, 0.0, 0.0, 0.0, 0.0050409999999999995]
position_covariance_type: 2
---
header: 
  seq: 2428
  stamp: 
    secs: 1558789552
    nsecs: 315723633
  frame_id: "base_link"
status: 
  status: 0
  service: 1
latitude: 51.4824433
longitude: -0.2180471
altitude: 53.5595208894
position_covariance: [0.0121, 0.0, 0.0, 0.0, 0.0121, 0.0, 0.0, 0.0, 0.009025]
position_covariance_type: 2
---
header: 
  seq: 2429
  stamp: 
    secs: 1558789552
    nsecs: 516239551
  frame_id: "base_link"
status: 
  status: 0
  service: 1
latitude: 51.4824429
longitude: -0.2180473
altitude: 53.5395206336
position_covariance: [0.012544000000000001, 0.0, 0.0, 0.0, 0.012544000000000001, 0.0, 0.0, 0.0, 0.009216]
position_covariance_type: 2
---
header: 
  seq: 2430
  stamp: 
    secs: 1558789552
    nsecs: 717590788
  frame_id: "base_link"
status: 
  status: 0
  service: 1
latitude: 51.4824423
longitude: -0.2180481
altitude: 53.527520827
position_covariance: [0.016129, 0.0, 0.0, 0.0, 0.016129, 0.0, 0.0, 0.0, 0.017161000000000003]
position_covariance_type: 2
---
header: 
  seq: 2431
  stamp: 
    secs: 1558789552
    nsecs: 917569324
  frame_id: "base_link"
status: 
  status: 0
  service: 1
latitude: 51.482442
longitude: -0.218047
altitude: 53.4515191925
position_covariance: [0.031328999999999996, 0.0, 0.0, 0.0, 0.031328999999999996, 0.0, 0.0, 0.0, 0.034969]
position_covariance_type: 2
---
header: 
  seq: 2432
  stamp: 
    secs: 1558789553
    nsecs: 116121488
  frame_id: "base_link"
status: 
  status: 0
  service: 1
latitude: 51.4824425
longitude: -0.2180456
altitude: 53.337518185
position_covariance: [0.047089, 0.0, 0.0, 0.0, 0.047089, 0.0, 0.0, 0.0, 0.0529]
position_covariance_type: 2
---
header: 
  seq: 2433
  stamp: 
    secs: 1558789553
    nsecs: 307586679
  frame_id: "base_link"
status: 
  status: 0
  service: 1
latitude: 51.4824417
longitude: -0.2180475
altitude: 53.3045194045
position_covariance: [0.068121, 0.0, 0.0, 0.0, 0.068121, 0.0, 0.0, 0.0, 0.07182400000000001]
position_covariance_type: 2
---
header: 
  seq: 2434
  stamp: 
    secs: 1558789553
    nsecs: 514300539
  frame_id: "base_link"
status: 
  status: 0
  service: 1
latitude: 51.4824414
longitude: -0.2180483
altitude: 53.2945199629
position_covariance: [0.08236899999999998, 0.0, 0.0, 0.0, 0.08236899999999998, 0.0, 0.0, 0.0, 0.094249]
position_covariance_type: 2
---
header: 
  seq: 2435
  stamp: 
    secs: 1558789553
    nsecs: 704565020
  frame_id: "base_link"
status: 
  status: 0
  service: 1
latitude: 51.4824413
longitude: -0.2180481
altitude: 53.3065196104
position_covariance: [0.096721, 0.0, 0.0, 0.0, 0.096721, 0.0, 0.0, 0.0, 0.11560000000000002]
position_covariance_type: 2
---
header: 
  seq: 2436
  stamp: 
    secs: 1558789553
    nsecs: 904164453
  frame_id: "base_link"
status: 
  status: 0
  service: 1
latitude: 51.4824413
longitude: -0.2180482
altitude: 53.3135197258
position_covariance: [0.12460899999999998, 0.0, 0.0, 0.0, 0.12460899999999998, 0.0, 0.0, 0.0, 0.134689]
position_covariance_type: 2
---
header: 
  seq: 2437
  stamp: 
    secs: 1558789554
    nsecs: 114160696
  frame_id: "base_link"
status: 
  status: 0
  service: 1
latitude: 51.4824412
longitude: -0.2180477
altitude: 53.3175190271
position_covariance: [0.15288100000000002, 0.0, 0.0, 0.0, 0.15288100000000002, 0.0, 0.0, 0.0, 0.2025]
position_covariance_type: 2
---
header: 
  seq: 2438
  stamp: 
    secs: 1558789554
    nsecs: 309104676
  frame_id: "base_link"
status: 
  status: 0
  service: 1
latitude: 51.4824406
longitude: -0.2180475
altitude: 53.3045180663
position_covariance: [0.19980900000000001, 0.0, 0.0, 0.0, 0.19980900000000001, 0.0, 0.0, 0.0, 0.294849]
position_covariance_type: 2
---
header: 
  seq: 2439
  stamp: 
    secs: 1558789554
    nsecs: 516459158
  frame_id: "base_link"
status: 
  status: 0
  service: 1
latitude: 51.4824412
longitude: -0.218048
altitude: 53.3245193733
position_covariance: [0.251001, 0.0, 0.0, 0.0, 0.251001, 0.0, 0.0, 0.0, 0.407044]
position_covariance_type: 2
---
header: 
  seq: 2440
  stamp: 
    secs: 1558789554
    nsecs: 703656167
  frame_id: "base_link"
status: 
  status: 0
  service: 1
latitude: 51.4824407
longitude: -0.2180472
altitude: 53.3565178417
position_covariance: [0.292681, 0.0, 0.0, 0.0, 0.292681, 0.0, 0.0, 0.0, 0.534361]
position_covariance_type: 2
---
header: 
  seq: 2441
  stamp: 
    secs: 1558789554
    nsecs: 912486240
  frame_id: "base_link"
status: 
  status: 0
  service: 1
latitude: 51.4824404
longitude: -0.2180465
altitude: 53.3955166689
position_covariance: [0.3203559999999999, 0.0, 0.0, 0.0, 0.3203559999999999, 0.0, 0.0, 0.0, 0.521284]
position_covariance_type: 2
---
header: 
  seq: 2442
  stamp: 
    secs: 1558789555
    nsecs: 117140647
  frame_id: "base_link"
status: 
  status: 0
  service: 1
latitude: 51.4824414
longitude: -0.2180465
altitude: 53.4905178855
position_covariance: [0.35046399999999994, 0.0, 0.0, 0.0, 0.35046399999999994, 0.0, 0.0, 0.0, 0.549081]
position_covariance_type: 2
---
header: 
  seq: 2443
  stamp: 
    secs: 1558789555
    nsecs: 322344548
  frame_id: "base_link"
status: 
  status: 0
  service: 1
latitude: 51.4824416
longitude: -0.218046
altitude: 53.5835175517
position_covariance: [0.39690000000000003, 0.0, 0.0, 0.0, 0.39690000000000003, 0.0, 0.0, 0.0, 0.599076]
position_covariance_type: 2
---
header: 
  seq: 2444
  stamp: 
    secs: 1558789555
    nsecs: 509141365
  frame_id: "base_link"
status: 
  status: 0
  service: 1
latitude: 51.4824421
longitude: -0.2180461
altitude: 53.6335182754
position_covariance: [0.44756100000000004, 0.0, 0.0, 0.0, 0.44756100000000004, 0.0, 0.0, 0.0, 0.6432040000000001]
position_covariance_type: 2
---
header: 
  seq: 2445
  stamp: 
    secs: 1558789555
    nsecs: 711995724
  frame_id: "base_link"
status: 
  status: 0
  service: 1
latitude: 51.4824429
longitude: -0.2180465
altitude: 53.6445197103
position_covariance: [0.47059600000000007, 0.0, 0.0, 0.0, 0.47059600000000007, 0.0, 0.0, 0.0, 0.6674889999999999]
position_covariance_type: 2
---
header: 
  seq: 2446
  stamp: 
    secs: 1558789555
    nsecs: 908986808
  frame_id: "base_link"
status: 
  status: 0
  service: 1
latitude: 51.4824432
longitude: -0.2180466
altitude: 53.6445201907
position_covariance: [0.391876, 0.0, 0.0, 0.0, 0.391876, 0.0, 0.0, 0.0, 0.5882890000000001]
position_covariance_type: 2
---
header: 
  seq: 2447
  stamp: 
    secs: 1558789556
    nsecs: 107828962
  frame_id: "base_link"
status: 
  status: 0
  service: 1
latitude: 51.4824437
longitude: -0.2180466
altitude: 53.666520799
position_covariance: [0.351649, 0.0, 0.0, 0.0, 0.351649, 0.0, 0.0, 0.0, 0.544644]
position_covariance_type: 2
---
header: 
  seq: 2448
  stamp: 
    secs: 1558789556
    nsecs: 339243807
  frame_id: "base_link"
status: 
  status: 0
  service: 1
latitude: 51.4824437
longitude: -0.2180477
altitude: 53.6405220685
position_covariance: [0.34456899999999996, 0.0, 0.0, 0.0, 0.34456899999999996, 0.0, 0.0, 0.0, 0.564001]
position_covariance_type: 2
---
header: 
  seq: 2449
  stamp: 
    secs: 1558789556
    nsecs: 511197985
  frame_id: "base_link"
status: 
  status: 0
  service: 1
latitude: 51.4824442
longitude: -0.2180479
altitude: 53.6855229077
position_covariance: [0.36, 0.0, 0.0, 0.0, 0.36, 0.0, 0.0, 0.0, 0.6400000000000001]
position_covariance_type: 2
---
header: 
  seq: 2450
  stamp: 
    secs: 1558789556
    nsecs: 713007396
  frame_id: "base_link"
status: 
  status: 0
  service: 1
latitude: 51.4824441
longitude: -0.2180476
altitude: 53.5985224398
position_covariance: [0.3721, 0.0, 0.0, 0.0, 0.3721, 0.0, 0.0, 0.0, 0.727609]
position_covariance_type: 2
---
header: 
  seq: 2451
  stamp: 
    secs: 1558789556
    nsecs: 917021972
  frame_id: "base_link"
status: 
  status: 0
  service: 1
latitude: 51.482444
longitude: -0.2180476
altitude: 53.5085223181
position_covariance: [0.34574399999999994, 0.0, 0.0, 0.0, 0.34574399999999994, 0.0, 0.0, 0.0, 0.710649]
position_covariance_type: 2
---
header: 
  seq: 2452
  stamp: 
    secs: 1558789557
    nsecs: 116267962
  frame_id: "base_link"
status: 
  status: 0
  service: 1
latitude: 51.4824439
longitude: -0.2180475
altitude: 53.441522081
position_covariance: [0.357604, 0.0, 0.0, 0.0, 0.357604, 0.0, 0.0, 0.0, 0.7310249999999999]
position_covariance_type: 2
---
header: 
  seq: 2453
  stamp: 
    secs: 1558789557
    nsecs: 315350842
  frame_id: "base_link"
status: 
  status: 0
  service: 1
latitude: 51.4824438
longitude: -0.2180467
altitude: 53.4885210361
position_covariance: [0.37332099999999996, 0.0, 0.0, 0.0, 0.37332099999999996, 0.0, 0.0, 0.0, 0.7464959999999999]
position_covariance_type: 2
---
header: 
  seq: 2454
  stamp: 
    secs: 1558789557
    nsecs: 516534409
  frame_id: "base_link"
status: 
  status: 0
  service: 1
latitude: 51.4824428
longitude: -0.2180462
altitude: 53.4995192424
position_covariance: [0.376996, 0.0, 0.0, 0.0, 0.376996, 0.0, 0.0, 0.0, 0.748225]
position_covariance_type: 2
---
header: 
  seq: 2455
  stamp: 
    secs: 1558789557
    nsecs: 711696056
  frame_id: "base_link"
status: 
  status: 0
  service: 1
latitude: 51.4824419
longitude: -0.2180462
altitude: 53.4795181475
position_covariance: [0.380689, 0.0, 0.0, 0.0, 0.380689, 0.0, 0.0, 0.0, 0.758641]
position_covariance_type: 2
---
header: 
  seq: 2456
  stamp: 
    secs: 1558789557
    nsecs: 912375368
  frame_id: "base_link"
status: 
  status: 0
  service: 1
latitude: 51.4824408
longitude: -0.2180468
altitude: 53.4215175017
position_covariance: [0.281961, 0.0, 0.0, 0.0, 0.281961, 0.0, 0.0, 0.0, 0.556516]
position_covariance_type: 2
---
header: 
  seq: 2457
  stamp: 
    secs: 1558789558
    nsecs: 126772593
  frame_id: "base_link"
status: 
  status: 0
  service: 1
latitude: 51.4824401
longitude: -0.2180466
altitude: 53.3985164193
position_covariance: [0.264196, 0.0, 0.0, 0.0, 0.264196, 0.0, 0.0, 0.0, 0.5505639999999999]
position_covariance_type: 2
---
header: 
  seq: 2458
  stamp: 
    secs: 1558789558
    nsecs: 330380644
  frame_id: "base_link"
status: 
  status: 0
  service: 1
latitude: 51.4824395
longitude: -0.2180465
altitude: 53.401515574
position_covariance: [0.259081, 0.0, 0.0, 0.0, 0.259081, 0.0, 0.0, 0.0, 0.527076]
position_covariance_type: 2
---
header: 
  seq: 2459
  stamp: 
    secs: 1558789558
    nsecs: 512950163
  frame_id: "base_link"
status: 
  status: 0
  service: 1
latitude: 51.4824401
longitude: -0.2180464
altitude: 53.3985161885
position_covariance: [0.259081, 0.0, 0.0, 0.0, 0.259081, 0.0, 0.0, 0.0, 0.5929]
position_covariance_type: 2
---
header: 
  seq: 2460
  stamp: 
    secs: 1558789558
    nsecs: 703794883
  frame_id: "base_link"
status: 
  status: 0
  service: 1
latitude: 51.4824399
longitude: -0.2180463
altitude: 53.3715158298
position_covariance: [0.273529, 0.0, 0.0, 0.0, 0.273529, 0.0, 0.0, 0.0, 0.662596]
position_covariance_type: 2
---
header: 
  seq: 2461
  stamp: 
    secs: 1558789558
    nsecs: 914912254
  frame_id: "base_link"
status: 
  status: 0
  service: 1
latitude: 51.4824401
longitude: -0.2180464
altitude: 53.3935161885
position_covariance: [0.294849, 0.0, 0.0, 0.0, 0.294849, 0.0, 0.0, 0.0, 0.6480250000000001]
position_covariance_type: 2
---
header: 
  seq: 2462
  stamp: 
    secs: 1558789559
    nsecs: 113401965
  frame_id: "base_link"
status: 
  status: 0
  service: 1
latitude: 51.4824399
longitude: -0.2180467
altitude: 53.4195162914
position_covariance: [0.3147210000000001, 0.0, 0.0, 0.0, 0.3147210000000001, 0.0, 0.0, 0.0, 0.6658559999999999]
position_covariance_type: 2
---
header: 
  seq: 2463
  stamp: 
    secs: 1558789559
    nsecs: 316877983
  frame_id: "base_link"
status: 
  status: 0
  service: 1
latitude: 51.4824399
longitude: -0.2180467
altitude: 53.3995162914
position_covariance: [0.3271839999999999, 0.0, 0.0, 0.0, 0.3271839999999999, 0.0, 0.0, 0.0, 0.685584]
position_covariance_type: 2
---
header: 
  seq: 2464
  stamp: 
    secs: 1558789559
    nsecs: 530853352
  frame_id: "base_link"
status: 
  status: 0
  service: 1
latitude: 51.4824395
longitude: -0.2180463
altitude: 53.3715153431
position_covariance: [0.32604099999999997, 0.0, 0.0, 0.0, 0.32604099999999997, 0.0, 0.0, 0.0, 0.6561000000000001]
position_covariance_type: 2
---
header: 
  seq: 2465
  stamp: 
    secs: 1558789559
    nsecs: 726740452
  frame_id: "base_link"
status: 
  status: 0
  service: 1
latitude: 51.4824388
longitude: -0.218047
altitude: 53.1175152994
position_covariance: [0.31024900000000005, 0.0, 0.0, 0.0, 0.31024900000000005, 0.0, 0.0, 0.0, 0.6416010000000001]
position_covariance_type: 2
---
header: 
  seq: 2466
  stamp: 
    secs: 1558789559
    nsecs: 922898076
  frame_id: "base_link"
status: 
  status: 0
  service: 1
latitude: 51.4824375
longitude: -0.2180488
altitude: 52.8725157952
position_covariance: [0.358801, 0.0, 0.0, 0.0, 0.358801, 0.0, 0.0, 0.0, 0.573049]
position_covariance_type: 2
---
header: 
  seq: 2467
  stamp: 
    secs: 1558789560
    nsecs: 122262216
  frame_id: "base_link"
status: 
  status: 0
  service: 1
latitude: 51.4824371
longitude: -0.2180501
altitude: 52.7975168089
position_covariance: [0.44222500000000003, 0.0, 0.0, 0.0, 0.44222500000000003, 0.0, 0.0, 0.0, 0.522729]
position_covariance_type: 2
---
header: 
  seq: 2468
  stamp: 
    secs: 1558789560
    nsecs: 323741680
  frame_id: "base_link"
status: 
  status: 0
  service: 1
latitude: 51.4824376
longitude: -0.2180503
altitude: 52.7795176481
position_covariance: [0.44222500000000003, 0.0, 0.0, 0.0, 0.44222500000000003, 0.0, 0.0, 0.0, 0.47748099999999993]
position_covariance_type: 2
---
header: 
  seq: 2469
  stamp: 
    secs: 1558789560
    nsecs: 521908973
  frame_id: "base_link"
status: 
  status: 0
  service: 1
latitude: 51.4824375
longitude: -0.2180509
altitude: 52.7895182189
position_covariance: [0.403225, 0.0, 0.0, 0.0, 0.403225, 0.0, 0.0, 0.0, 0.4624000000000001]
position_covariance_type: 2
---
header: 
  seq: 2470
  stamp: 
    secs: 1558789560
    nsecs: 721696392
  frame_id: "base_link"
status: 
  status: 0
  service: 1
latitude: 51.4824376
longitude: -0.2180519
altitude: 52.7325194946
position_covariance: [0.385641, 0.0, 0.0, 0.0, 0.385641, 0.0, 0.0, 0.0, 0.45562500000000006]
position_covariance_type: 2
---
header: 
  seq: 2471
  stamp: 
    secs: 1558789560
    nsecs: 915180813
  frame_id: "base_link"
status: 
  status: 0
  service: 1
latitude: 51.4824387
longitude: -0.2180527
altitude: 52.7155217562
position_covariance: [0.37576899999999996, 0.0, 0.0, 0.0, 0.37576899999999996, 0.0, 0.0, 0.0, 0.524176]
position_covariance_type: 2
---
header: 
  seq: 2472
  stamp: 
    secs: 1558789561
    nsecs: 117843909
  frame_id: "base_link"
status: 
  status: 0
  service: 1
latitude: 51.4824397
longitude: -0.2180537
altitude: 52.5495241269
position_covariance: [0.40195600000000004, 0.0, 0.0, 0.0, 0.40195600000000004, 0.0, 0.0, 0.0, 0.6561000000000001]
position_covariance_type: 2
---
header: 
  seq: 2473
  stamp: 
    secs: 1558789561
    nsecs: 326237787
  frame_id: "base_link"
status: 
  status: 0
  service: 1
latitude: 51.4824401
longitude: -0.2180544
altitude: 52.4965254214
position_covariance: [0.42250000000000004, 0.0, 0.0, 0.0, 0.42250000000000004, 0.0, 0.0, 0.0, 0.813604]
position_covariance_type: 2
---
header: 
  seq: 2474
  stamp: 
    secs: 1558789561
    nsecs: 507984411
  frame_id: "base_link"
status: 
  status: 0
  service: 1
latitude: 51.4824405
longitude: -0.2180557
altitude: 52.4245274084
position_covariance: [0.44488900000000003, 0.0, 0.0, 0.0, 0.44488900000000003, 0.0, 0.0, 0.0, 0.976144]
position_covariance_type: 2
---
header: 
  seq: 2475
  stamp: 
    secs: 1558789561
    nsecs: 723448013
  frame_id: "base_link"
status: 
  status: 0
  service: 1
latitude: 51.4824409
longitude: -0.2180565
altitude: 52.4535288183
position_covariance: [0.47059600000000007, 0.0, 0.0, 0.0, 0.47059600000000007, 0.0, 0.0, 0.0, 1.1577760000000001]
position_covariance_type: 2
---
header: 
  seq: 2476
  stamp: 
    secs: 1558789561
    nsecs: 911486450
  frame_id: "base_link"
status: 
  status: 0
  service: 1
latitude: 51.4824411
longitude: -0.2180567
altitude: 52.3475292925
position_covariance: [0.5041, 0.0, 0.0, 0.0, 0.5041, 0.0, 0.0, 0.0, 1.190281]
position_covariance_type: 2
---
header: 
  seq: 2477
  stamp: 
    secs: 1558789562
    nsecs: 113720643
  frame_id: "base_link"
status: 
  status: 0
  service: 1
latitude: 51.4824413
longitude: -0.2180565
altitude: 52.397529305
position_covariance: [0.559504, 0.0, 0.0, 0.0, 0.559504, 0.0, 0.0, 0.0, 1.256641]
position_covariance_type: 2
---
header: 
  seq: 2478
  stamp: 
    secs: 1558789562
    nsecs: 313353398
  frame_id: "base_link"
status: 
  status: 0
  service: 1
latitude: 51.4824412
longitude: -0.2180559
altitude: 52.2615284908
position_covariance: [0.6241000000000001, 0.0, 0.0, 0.0, 0.6241000000000001, 0.0, 0.0, 0.0, 1.306449]
position_covariance_type: 2
---
header: 
  seq: 2479
  stamp: 
    secs: 1558789562
    nsecs: 514986470
  frame_id: "base_link"
status: 
  status: 0
  service: 1
latitude: 51.4824409
longitude: -0.2180564
altitude: 52.2705287029
position_covariance: [0.6432040000000001, 0.0, 0.0, 0.0, 0.6432040000000001, 0.0, 0.0, 0.0, 1.3782759999999998]
position_covariance_type: 2
---
header: 
  seq: 2480
  stamp: 
    secs: 1558789562
    nsecs: 715263054
  frame_id: "base_link"
status: 
  status: 0
  service: 1
latitude: 51.4824408
longitude: -0.2180568
altitude: 52.2235290429
position_covariance: [0.6889, 0.0, 0.0, 0.0, 0.6889, 0.0, 0.0, 0.0, 1.468944]
position_covariance_type: 2
---
header: 
  seq: 2481
  stamp: 
    secs: 1558789562
    nsecs: 905685832
  frame_id: "base_link"
status: 
  status: 0
  service: 1
latitude: 51.4824408
longitude: -0.2180566
altitude: 52.2405288121
position_covariance: [0.6288490000000001, 0.0, 0.0, 0.0, 0.6288490000000001, 0.0, 0.0, 0.0, 1.373584]
position_covariance_type: 2
---
header: 
  seq: 2482
  stamp: 
    secs: 1558789563
    nsecs: 115624143
  frame_id: "base_link"
status: 
  status: 0
  service: 1
latitude: 51.4824407
longitude: -0.2180559
altitude: 52.2725278825
position_covariance: [0.6658559999999999, 0.0, 0.0, 0.0, 0.6658559999999999, 0.0, 0.0, 0.0, 1.334025]
position_covariance_type: 2
---
header: 
  seq: 2483
  stamp: 
    secs: 1558789563
    nsecs: 311038730
  frame_id: "base_link"
status: 
  status: 0
  service: 1
latitude: 51.4824417
longitude: -0.2180579
altitude: 52.2245314074
position_covariance: [0.698896, 0.0, 0.0, 0.0, 0.698896, 0.0, 0.0, 0.0, 1.4957290000000003]
position_covariance_type: 2
---
header: 
  seq: 2484
  stamp: 
    secs: 1558789563
    nsecs: 515238396
  frame_id: "base_link"
status: 
  status: 0
  service: 1
latitude: 51.4824415
longitude: -0.2180575
altitude: 52.1885307024
position_covariance: [0.7157159999999999, 0.0, 0.0, 0.0, 0.7157159999999999, 0.0, 0.0, 0.0, 1.679616]
position_covariance_type: 2
---
header: 
  seq: 2485
  stamp: 
    secs: 1558789563
    nsecs: 712883588
  frame_id: "base_link"
status: 
  status: 0
  service: 1
latitude: 51.4824414
longitude: -0.2180574
altitude: 52.2045304653
position_covariance: [0.748225, 0.0, 0.0, 0.0, 0.748225, 0.0, 0.0, 0.0, 1.766241]
position_covariance_type: 2
---
header: 
  seq: 2486
  stamp: 
    secs: 1558789563
    nsecs: 916323639
  frame_id: "base_link"
status: 
  status: 0
  service: 1
latitude: 51.4824414
longitude: -0.2180579
altitude: 52.1495310424
position_covariance: [0.811801, 0.0, 0.0, 0.0, 0.811801, 0.0, 0.0, 0.0, 1.890625]
position_covariance_type: 2
---
header: 
  seq: 2487
  stamp: 
    secs: 1558789564
    nsecs: 115019472
  frame_id: "base_link"
status: 
  status: 0
  service: 1
latitude: 51.4824414
longitude: -0.2180587
altitude: 52.0895319657
position_covariance: [0.8574760000000001, 0.0, 0.0, 0.0, 0.8574760000000001, 0.0, 0.0, 0.0, 2.0164]
position_covariance_type: 2
---
header: 
  seq: 2488
  stamp: 
    secs: 1558789564
    nsecs: 315148805
  frame_id: "base_link"
status: 
  status: 0
  service: 1
latitude: 51.4824414
longitude: -0.218059
altitude: 52.1075323119
position_covariance: [0.898704, 0.0, 0.0, 0.0, 0.898704, 0.0, 0.0, 0.0, 2.1315999999999997]
position_covariance_type: 2
---
header: 
  seq: 2489
  stamp: 
    secs: 1558789564
    nsecs: 513287727
  frame_id: "base_link"
status: 
  status: 0
  service: 1
latitude: 51.4824413
longitude: -0.2180599
altitude: 51.998533229
position_covariance: [0.933156, 0.0, 0.0, 0.0, 0.933156, 0.0, 0.0, 0.0, 2.2470010000000005]
position_covariance_type: 2
---
header: 
  seq: 2490
  stamp: 
    secs: 1558789564
    nsecs: 711592951
  frame_id: "base_link"
status: 
  status: 0
  service: 1
latitude: 51.4824411
longitude: -0.2180601
altitude: 51.9775332165
position_covariance: [0.964324, 0.0, 0.0, 0.0, 0.964324, 0.0, 0.0, 0.0, 2.359296]
position_covariance_type: 2
---
header: 
  seq: 2491
  stamp: 
    secs: 1558789564
    nsecs: 915260252
  frame_id: "base_link"
status: 
  status: 0
  service: 1
latitude: 51.482441
longitude: -0.2180604
altitude: 51.9045334411
position_covariance: [1.0020009999999997, 0.0, 0.0, 0.0, 1.0020009999999997, 0.0, 0.0, 0.0, 2.468041]
position_covariance_type: 2
---
header: 
  seq: 2492
  stamp: 
    secs: 1558789565
    nsecs: 122572909
  frame_id: "base_link"
status: 
  status: 0
  service: 1
latitude: 51.482441
longitude: -0.2180614
altitude: 51.8095345952
position_covariance: [1.036324, 0.0, 0.0, 0.0, 1.036324, 0.0, 0.0, 0.0, 2.5664040000000004]
position_covariance_type: 2
---
header: 
  seq: 2493
  stamp: 
    secs: 1558789565
    nsecs: 312703197
  frame_id: "base_link"
status: 
  status: 0
  service: 1
latitude: 51.482441
longitude: -0.2180618
altitude: 51.8355350568
position_covariance: [1.065024, 0.0, 0.0, 0.0, 1.065024, 0.0, 0.0, 0.0, 2.6699559999999996]
position_covariance_type: 2
---
header: 
  seq: 2494
  stamp: 
    secs: 1558789565
    nsecs: 511656004
  frame_id: "base_link"
status: 
  status: 0
  service: 1
latitude: 51.4824409
longitude: -0.2180627
altitude: 51.7745359739
position_covariance: [1.094116, 0.0, 0.0, 0.0, 1.094116, 0.0, 0.0, 0.0, 2.778889]
position_covariance_type: 2
---
header: 
  seq: 2495
  stamp: 
    secs: 1558789565
    nsecs: 713421249
  frame_id: "base_link"
status: 
  status: 0
  service: 1
latitude: 51.4824408
longitude: -0.2180634
altitude: 51.7155366601
position_covariance: [1.121481, 0.0, 0.0, 0.0, 1.121481, 0.0, 0.0, 0.0, 2.8934010000000003]
position_covariance_type: 2
---
header: 
  seq: 2496
  stamp: 
    secs: 1558789565
    nsecs: 913014352
  frame_id: "base_link"
status: 
  status: 0
  service: 1
latitude: 51.4824407
longitude: -0.2180641
altitude: 51.6515373463
position_covariance: [1.147041, 0.0, 0.0, 0.0, 1.147041, 0.0, 0.0, 0.0, 3.0067559999999998]
position_covariance_type: 2
---
header: 
  seq: 2497
  stamp: 
    secs: 1558789566
    nsecs: 122380913
  frame_id: "base_link"
status: 
  status: 0
  service: 1
latitude: 51.4824409
longitude: -0.2180649
altitude: 51.6475385129
position_covariance: [1.1728889999999998, 0.0, 0.0, 0.0, 1.1728889999999998, 0.0, 0.0, 0.0, 3.125824]
position_covariance_type: 2
---
header: 
  seq: 2498
  stamp: 
    secs: 1558789566
    nsecs: 316506143
  frame_id: "base_link"
status: 
  status: 0
  service: 1
latitude: 51.482441
longitude: -0.2180653
altitude: 51.6855390963
position_covariance: [1.203409, 0.0, 0.0, 0.0, 1.203409, 0.0, 0.0, 0.0, 3.243601]
position_covariance_type: 2
---
header: 
  seq: 2499
  stamp: 
    secs: 1558789566
    nsecs: 514652793
  frame_id: "base_link"
status: 
  status: 0
  service: 1
latitude: 51.4824409
longitude: -0.2180661
altitude: 51.6325398979
position_covariance: [1.2365440000000003, 0.0, 0.0, 0.0, 1.2365440000000003, 0.0, 0.0, 0.0, 3.359889]
position_covariance_type: 2
---
header: 
  seq: 2500
  stamp: 
    secs: 1558789566
    nsecs: 713779914
  frame_id: "base_link"
status: 
  status: 0
  service: 1
latitude: 51.4824409
longitude: -0.218067
altitude: 51.5495409366
position_covariance: [0.7516889999999999, 0.0, 0.0, 0.0, 0.7516889999999999, 0.0, 0.0, 0.0, 3.4969000000000006]
position_covariance_type: 2
---
header: 
  seq: 2501
  stamp: 
    secs: 1558789566
    nsecs: 904537570
  frame_id: "base_link"
status: 
  status: 0
  service: 1
latitude: 51.482441
longitude: -0.2180671
altitude: 51.5055411737
position_covariance: [0.6448090000000001, 0.0, 0.0, 0.0, 0.6448090000000001, 0.0, 0.0, 0.0, 3.6979290000000002]
position_covariance_type: 2
---
header: 
  seq: 2502
  stamp: 
    secs: 1558789567
    nsecs: 115318275
  frame_id: "base_link"
status: 
  status: 0
  service: 1
latitude: 51.4824408
longitude: -0.2180677
altitude: 51.3955416228
position_covariance: [0.6193690000000001, 0.0, 0.0, 0.0, 0.6193690000000001, 0.0, 0.0, 0.0, 3.912484]
position_covariance_type: 2
---
header: 
  seq: 2503
  stamp: 
    secs: 1558789567
    nsecs: 305221744
  frame_id: "base_link"
status: 
  status: 0
  service: 1
latitude: 51.4824406
longitude: -0.2180679
altitude: 51.3515416103
position_covariance: [0.617796, 0.0, 0.0, 0.0, 0.617796, 0.0, 0.0, 0.0, 4.124961000000001]
position_covariance_type: 2
---
header: 
  seq: 2504
  stamp: 
    secs: 1558789567
    nsecs: 513612008
  frame_id: "base_link"
status: 
  status: 0
  service: 1
latitude: 51.4824405
longitude: -0.2180685
altitude: 51.2475421812
position_covariance: [0.6544810000000001, 0.0, 0.0, 0.0, 0.6544810000000001, 0.0, 0.0, 0.0, 4.182024999999999]
position_covariance_type: 2
---
header: 
  seq: 2505
  stamp: 
    secs: 1558789567
    nsecs: 712657473
  frame_id: "base_link"
status: 
  status: 0
  service: 1
latitude: 51.4824402
longitude: -0.2180688
altitude: 51.1335421624
position_covariance: [0.7072809999999999, 0.0, 0.0, 0.0, 0.7072809999999999, 0.0, 0.0, 0.0, 4.268355999999999]
position_covariance_type: 2
---
header: 
  seq: 2506
  stamp: 
    secs: 1558789567
    nsecs: 913882034
  frame_id: "base_link"
status: 
  status: 0
  service: 1
latitude: 51.4824402
longitude: -0.2180689
altitude: 51.0895422778
position_covariance: [0.7361639999999999, 0.0, 0.0, 0.0, 0.7361639999999999, 0.0, 0.0, 0.0, 4.338889000000001]
position_covariance_type: 2
---
header: 
  seq: 2507
  stamp: 
    secs: 1558789568
    nsecs: 126827443
  frame_id: "base_link"
status: 
  status: 0
  service: 1
latitude: 51.4824402
longitude: -0.2180692
altitude: 51.0325426241
position_covariance: [0.762129, 0.0, 0.0, 0.0, 0.762129, 0.0, 0.0, 0.0, 4.397409]
position_covariance_type: 2
---
header: 
  seq: 2508
  stamp: 
    secs: 1558789568
    nsecs: 304918008
  frame_id: "base_link"
status: 
  status: 0
  service: 1
latitude: 51.4824402
longitude: -0.2180696
altitude: 50.9045430857
position_covariance: [0.540225, 0.0, 0.0, 0.0, 0.540225, 0.0, 0.0, 0.0, 4.507129000000001]
position_covariance_type: 2
---
header: 
  seq: 2509
  stamp: 
    secs: 1558789568
    nsecs: 516233272
  frame_id: "base_link"
status: 
  status: 0
  service: 1
latitude: 51.4824401
longitude: -0.2180698
altitude: 50.7975431949
position_covariance: [0.4914009999999999, 0.0, 0.0, 0.0, 0.4914009999999999, 0.0, 0.0, 0.0, 4.695888999999999]
position_covariance_type: 2
---
header: 
  seq: 2510
  stamp: 
    secs: 1558789568
    nsecs: 705907270
  frame_id: "base_link"
status: 
  status: 0
  service: 1
latitude: 51.4824399
longitude: -0.2180704
altitude: 50.733543644
position_covariance: [0.47748099999999993, 0.0, 0.0, 0.0, 0.47748099999999993, 0.0, 0.0, 0.0, 4.8752640000000005]
position_covariance_type: 2
---
header: 
  seq: 2511
  stamp: 
    secs: 1558789568
    nsecs: 914643427
  frame_id: "base_link"
status: 
  status: 0
  service: 1
latitude: 51.48244
longitude: -0.2180704
altitude: 50.7185437657
position_covariance: [0.47472099999999995, 0.0, 0.0, 0.0, 0.47472099999999995, 0.0, 0.0, 0.0, 5.049009]
position_covariance_type: 2
---
header: 
  seq: 2512
  stamp: 
    secs: 1558789569
    nsecs: 109981835
  frame_id: "base_link"
status: 
  status: 0
  service: 1
latitude: 51.4824401
longitude: -0.2180706
altitude: 50.7055441182
position_covariance: [0.49420899999999995, 0.0, 0.0, 0.0, 0.49420899999999995, 0.0, 0.0, 0.0, 5.071503999999999]
position_covariance_type: 2
---
header: 
  seq: 2513
  stamp: 
    secs: 1558789569
    nsecs: 304378155
  frame_id: "base_link"
status: 
  status: 0
  service: 1
latitude: 51.4824402
longitude: -0.2180704
altitude: 50.811544009
position_covariance: [0.5314409999999999, 0.0, 0.0, 0.0, 0.5314409999999999, 0.0, 0.0, 0.0, 5.1438239999999995]
position_covariance_type: 2
---
header: 
  seq: 2514
  stamp: 
    secs: 1558789569
    nsecs: 506185696
  frame_id: "base_link"
status: 
  status: 0
  service: 1
latitude: 51.4824403
longitude: -0.2180703
altitude: 50.8925440153
position_covariance: [0.564001, 0.0, 0.0, 0.0, 0.564001, 0.0, 0.0, 0.0, 5.2166559999999995]
position_covariance_type: 2
---
header: 
  seq: 2515
  stamp: 
    secs: 1558789569
    nsecs: 702279760
  frame_id: "base_link"
status: 
  status: 0
  service: 1
latitude: 51.4824404
longitude: -0.2180701
altitude: 50.9635439061
position_covariance: [0.599076, 0.0, 0.0, 0.0, 0.599076, 0.0, 0.0, 0.0, 5.294601000000001]
position_covariance_type: 2
---
header: 
  seq: 2516
  stamp: 
    secs: 1558789569
    nsecs: 896190052
  frame_id: "base_link"
status: 
  status: 0
  service: 1
latitude: 51.4824404
longitude: -0.2180703
altitude: 51.0295441369
position_covariance: [0.6336160000000001, 0.0, 0.0, 0.0, 0.6336160000000001, 0.0, 0.0, 0.0, 5.363855999999999]
position_covariance_type: 2
---
header: 
  seq: 2517
  stamp: 
    secs: 1558789570
    nsecs: 106791632
  frame_id: "base_link"
status: 
  status: 0
  service: 1
latitude: 51.4824406
longitude: -0.2180708
altitude: 51.0365449573
position_covariance: [0.664225, 0.0, 0.0, 0.0, 0.664225, 0.0, 0.0, 0.0, 5.354596]
position_covariance_type: 2
---
header: 
  seq: 2518
  stamp: 
    secs: 1558789570
    nsecs: 297739638
  frame_id: "base_link"
status: 
  status: 0
  service: 1
latitude: 51.4824409
longitude: -0.2180719
altitude: 51.3105465918
position_covariance: [0.692224, 0.0, 0.0, 0.0, 0.692224, 0.0, 0.0, 0.0, 5.400975999999999]
position_covariance_type: 2
---
header: 
  seq: 2519
  stamp: 
    secs: 1558789570
    nsecs: 509687882
  frame_id: "base_link"
status: 
  status: 0
  service: 1
latitude: 51.4824415
longitude: -0.2180728
altitude: 51.6955483605
position_covariance: [0.7140249999999999, 0.0, 0.0, 0.0, 0.7140249999999999, 0.0, 0.0, 0.0, 5.424241000000001]
position_covariance_type: 2
---
header: 
  seq: 2520
  stamp: 
    secs: 1558789570
    nsecs: 704261118
  frame_id: "base_link"
status: 
  status: 0
  service: 1
latitude: 51.4824417
longitude: -0.2180741
altitude: 51.8125501042
position_covariance: [0.7395999999999999, 0.0, 0.0, 0.0, 0.7395999999999999, 0.0, 0.0, 0.0, 5.452224999999999]
position_covariance_type: 2
---
header: 
  seq: 2521
  stamp: 
    secs: 1558789570
    nsecs: 903642803
  frame_id: "base_link"
status: 
  status: 0
  service: 1
latitude: 51.4824415
longitude: -0.218076
altitude: 51.6475520537
position_covariance: [0.760384, 0.0, 0.0, 0.0, 0.760384, 0.0, 0.0, 0.0, 5.4102760000000005]
position_covariance_type: 2
---
header: 
  seq: 2522
  stamp: 
    secs: 1558789571
    nsecs: 104497942
  frame_id: "base_link"
status: 
  status: 0
  service: 1
latitude: 51.4824415
longitude: -0.2180764
altitude: 51.7685525154
position_covariance: [0.788544, 0.0, 0.0, 0.0, 0.788544, 0.0, 0.0, 0.0, 5.400975999999999]
position_covariance_type: 2
---
header: 
  seq: 2523
  stamp: 
    secs: 1558789571
    nsecs: 313012527
  frame_id: "base_link"
status: 
  status: 0
  service: 1
latitude: 51.4824414
longitude: -0.2180766
altitude: 51.8985526245
position_covariance: [0.829921, 0.0, 0.0, 0.0, 0.829921, 0.0, 0.0, 0.0, 5.4195839999999995]
position_covariance_type: 2
---
header: 
  seq: 2524
  stamp: 
    secs: 1558789571
    nsecs: 521999694
  frame_id: "base_link"
status: 
  status: 0
  service: 1
latitude: 51.4824414
longitude: -0.2180776
altitude: 51.9415537787
position_covariance: [0.8611840000000001, 0.0, 0.0, 0.0, 0.8611840000000001, 0.0, 0.0, 0.0, 5.4195839999999995]
position_covariance_type: 2
---
header: 
  seq: 2525
  stamp: 
    secs: 1558789571
    nsecs: 707703673
  frame_id: "base_link"
status: 
  status: 0
  service: 1
latitude: 51.4824417
longitude: -0.2180785
altitude: 51.9655551824
position_covariance: [0.8742250000000001, 0.0, 0.0, 0.0, 0.8742250000000001, 0.0, 0.0, 0.0, 5.4102760000000005]
position_covariance_type: 2
---
header: 
  seq: 2526
  stamp: 
    secs: 1558789571
    nsecs: 904945366
  frame_id: "base_link"
status: 
  status: 0
  service: 1
latitude: 51.482442
longitude: -0.2180794
altitude: 51.9925565861
position_covariance: [0.8835999999999999, 0.0, 0.0, 0.0, 0.8835999999999999, 0.0, 0.0, 0.0, 5.363855999999999]
position_covariance_type: 2
---
header: 
  seq: 2527
  stamp: 
    secs: 1558789572
    nsecs: 109336821
  frame_id: "base_link"
status: 
  status: 0
  service: 1
latitude: 51.4824423
longitude: -0.2180813
altitude: 51.6675591439
position_covariance: [0.8949159999999999, 0.0, 0.0, 0.0, 0.8949159999999999, 0.0, 0.0, 0.0, 5.294601000000001]
position_covariance_type: 2
---
header: 
  seq: 2528
  stamp: 
    secs: 1558789572
    nsecs: 296858679
  frame_id: "base_link"
status: 
  status: 0
  service: 1
latitude: 51.482443
longitude: -0.2180815
altitude: 51.7135602264
position_covariance: [0.913936, 0.0, 0.0, 0.0, 0.913936, 0.0, 0.0, 0.0, 5.294601000000001]
position_covariance_type: 2
---
header: 
  seq: 2529
  stamp: 
    secs: 1558789572
    nsecs: 508513797
  frame_id: "base_link"
status: 
  status: 0
  service: 1
latitude: 51.4824432
longitude: -0.2180836
altitude: 51.5075628934
position_covariance: [0.9292959999999999, 0.0, 0.0, 0.0, 0.9292959999999999, 0.0, 0.0, 0.0, 5.267024999999999]
position_covariance_type: 2
---
header: 
  seq: 2530
  stamp: 
    secs: 1558789572
    nsecs: 702297629
  frame_id: "base_link"
status: 
  status: 0
  service: 1
latitude: 51.4824432
longitude: -0.2180858
altitude: 51.2465654325
position_covariance: [0.944784, 0.0, 0.0, 0.0, 0.944784, 0.0, 0.0, 0.0, 5.2441]
position_covariance_type: 2
---
header: 
  seq: 2531
  stamp: 
    secs: 1558789572
    nsecs: 904493019
  frame_id: "base_link"
status: 
  status: 0
  service: 1
latitude: 51.482443
longitude: -0.2180878
altitude: 51.0575674975
position_covariance: [0.978121, 0.0, 0.0, 0.0, 0.978121, 0.0, 0.0, 0.0, 5.267024999999999]
position_covariance_type: 2
---
header: 
  seq: 2532
  stamp: 
    secs: 1558789573
    nsecs: 112951711
  frame_id: "base_link"
status: 
  status: 0
  service: 1
latitude: 51.4824428
longitude: -0.2180884
altitude: 51.0505679466
position_covariance: [1.0302249999999997, 0.0, 0.0, 0.0, 1.0302249999999997, 0.0, 0.0, 0.0, 5.3361]
position_covariance_type: 2
---
header: 
  seq: 2533
  stamp: 
    secs: 1558789573
    nsecs: 295599870
  frame_id: "base_link"
status: 
  status: 0
  service: 1
latitude: 51.4824426
longitude: -0.218089
altitude: 50.9455683958
position_covariance: [1.0878489999999998, 0.0, 0.0, 0.0, 1.0878489999999998, 0.0, 0.0, 0.0, 5.414929]
position_covariance_type: 2
---
header: 
  seq: 2534
  stamp: 
    secs: 1558789573
    nsecs: 505984753
  frame_id: "base_link"
status: 
  status: 0
  service: 1
latitude: 51.4824426
longitude: -0.2180904
altitude: 50.8405700116
position_covariance: [1.125721, 0.0, 0.0, 0.0, 1.125721, 0.0, 0.0, 0.0, 5.4102760000000005]
position_covariance_type: 2
---
header: 
  seq: 2535
  stamp: 
    secs: 1558789573
    nsecs: 692506290
  frame_id: "base_link"
status: 
  status: 0
  service: 1
latitude: 51.4824425
longitude: -0.2180915
altitude: 50.7425711595
position_covariance: [1.1449, 0.0, 0.0, 0.0, 1.1449, 0.0, 0.0, 0.0, 5.3592249999999995]
position_covariance_type: 2
---
header: 
  seq: 2536
  stamp: 
    secs: 1558789573
    nsecs: 903907752
  frame_id: "base_link"
status: 
  status: 0
  service: 1
latitude: 51.4824433
longitude: -0.2180903
altitude: 51.0205707478
position_covariance: [1.1642409999999999, 0.0, 0.0, 0.0, 1.1642409999999999, 0.0, 0.0, 0.0, 5.303808999999999]
position_covariance_type: 2
---
header: 
  seq: 2537
  stamp: 
    secs: 1558789574
    nsecs: 113906687
  frame_id: "base_link"
status: 
  status: 0
  service: 1
latitude: 51.4824436
longitude: -0.2180905
altitude: 51.2185713436
position_covariance: [1.185921, 0.0, 0.0, 0.0, 1.185921, 0.0, 0.0, 0.0, 5.3592249999999995]
position_covariance_type: 2
---
header: 
  seq: 2538
  stamp: 
    secs: 1558789574
    nsecs: 307382509
  frame_id: "base_link"
status: 
  status: 0
  service: 1
latitude: 51.4824441
longitude: -0.218091
altitude: 51.235572529
position_covariance: [1.2188160000000001, 0.0, 0.0, 0.0, 1.2188160000000001, 0.0, 0.0, 0.0, 5.396329]
position_covariance_type: 2
---
header: 
  seq: 2539
  stamp: 
    secs: 1558789574
    nsecs: 510337568
  frame_id: "base_link"
status: 
  status: 0
  service: 1
latitude: 51.4824443
longitude: -0.2180923
altitude: 51.0715742727
position_covariance: [1.247689, 0.0, 0.0, 0.0, 1.247689, 0.0, 0.0, 0.0, 5.391684000000001]
position_covariance_type: 2
---
header: 
  seq: 2540
  stamp: 
    secs: 1558789574
    nsecs: 711127659
  frame_id: "base_link"
status: 
  status: 0
  service: 1
latitude: 51.4824451
longitude: -0.2180936
altitude: 50.9435767464
position_covariance: [1.2768999999999997, 0.0, 0.0, 0.0, 1.2768999999999997, 0.0, 0.0, 0.0, 5.414929]
position_covariance_type: 2
---
header: 
  seq: 2541
  stamp: 
    secs: 1558789574
    nsecs: 906507818
  frame_id: "base_link"
status: 
  status: 0
  service: 1
latitude: 51.4824458
longitude: -0.2180953
altitude: 50.8255795601
position_covariance: [1.3133159999999997, 0.0, 0.0, 0.0, 1.3133159999999997, 0.0, 0.0, 0.0, 5.4568959999999995]
position_covariance_type: 2
---
header: 
  seq: 2542
  stamp: 
    secs: 1558789575
    nsecs:  95274773
  frame_id: "base_link"
status: 
  status: 0
  service: 1
latitude: 51.4824464
longitude: -0.2180967
altitude: 50.7795819059
position_covariance: [1.3479210000000001, 0.0, 0.0, 0.0, 1.3479210000000001, 0.0, 0.0, 0.0, 5.480281000000001]
position_covariance_type: 2
---
header: 
  seq: 2543
  stamp: 
    secs: 1558789575
    nsecs: 307318070
  frame_id: "base_link"
status: 
  status: 0
  service: 1
latitude: 51.4824469
longitude: -0.2180978
altitude: 50.8185837838
position_covariance: [1.3829759999999998, 0.0, 0.0, 0.0, 1.3829759999999998, 0.0, 0.0, 0.0, 5.4990250000000005]
position_covariance_type: 2
---
header: 
  seq: 2544
  stamp: 
    secs: 1558789575
    nsecs: 511982195
  frame_id: "base_link"
status: 
  status: 0
  service: 1
latitude: 51.4824475
longitude: -0.2180992
altitude: 50.7325861295
position_covariance: [1.4161, 0.0, 0.0, 0.0, 1.4161, 0.0, 0.0, 0.0, 5.4990250000000005]
position_covariance_type: 2
---
header: 
  seq: 2545
  stamp: 
    secs: 1558789575
    nsecs: 705621797
  frame_id: "base_link"
status: 
  status: 0
  service: 1
latitude: 51.4824486
longitude: -0.2180982
altitude: 50.9545863137
position_covariance: [1.4424010000000003, 0.0, 0.0, 0.0, 1.4424010000000003, 0.0, 0.0, 0.0, 5.517801000000001]
position_covariance_type: 2
---
header: 
  seq: 2546
  stamp: 
    secs: 1558789575
    nsecs: 904327328
  frame_id: "base_link"
status: 
  status: 0
  service: 1
latitude: 51.4824499
longitude: -0.2180983
altitude: 51.0165880107
position_covariance: [1.468944, 0.0, 0.0, 0.0, 1.468944, 0.0, 0.0, 0.0, 5.541316]
position_covariance_type: 2
---
header: 
  seq: 2547
  stamp: 
    secs: 1558789576
    nsecs: 109422349
  frame_id: "base_link"
status: 
  status: 0
  service: 1
latitude: 51.4824516
longitude: -0.2180989
altitude: 51.0335907715
position_covariance: [1.4932839999999998, 0.0, 0.0, 0.0, 1.4932839999999998, 0.0, 0.0, 0.0, 5.569599999999999]
position_covariance_type: 2
---
header: 
  seq: 2548
  stamp: 
    secs: 1558789576
    nsecs: 303651616
  frame_id: "base_link"
status: 
  status: 0
  service: 1
latitude: 51.482453
longitude: -0.2180992
altitude: 51.020592821
position_covariance: [1.5153610000000002, 0.0, 0.0, 0.0, 1.5153610000000002, 0.0, 0.0, 0.0, 5.602689]
position_covariance_type: 2
---
header: 
  seq: 2549
  stamp: 
    secs: 1558789576
    nsecs: 503020582
  frame_id: "base_link"
status: 
  status: 0
  service: 1
latitude: 51.4824547
longitude: -0.2180997
altitude: 50.9635954664
position_covariance: [1.527696, 0.0, 0.0, 0.0, 1.527696, 0.0, 0.0, 0.0, 5.602689]
position_covariance_type: 2
---
header: 
  seq: 2550
  stamp: 
    secs: 1558789576
    nsecs: 702060900
  frame_id: "base_link"
status: 
  status: 0
  service: 1
latitude: 51.4824567
longitude: -0.2180982
altitude: 51.0425961684
position_covariance: [1.5450490000000003, 0.0, 0.0, 0.0, 1.5450490000000003, 0.0, 0.0, 0.0, 5.626384]
position_covariance_type: 2
---
header: 
  seq: 2551
  stamp: 
    secs: 1558789576
    nsecs: 900991045
  frame_id: "base_link"
status: 
  status: 0
  service: 1
latitude: 51.4824588
longitude: -0.2180959
altitude: 51.2835960688
position_covariance: [1.5650009999999996, 0.0, 0.0, 0.0, 1.5650009999999996, 0.0, 0.0, 0.0, 5.669160999999999]
position_covariance_type: 2
---
header: 
  seq: 2552
  stamp: 
    secs: 1558789577
    nsecs: 107507622
  frame_id: "base_link"
status: 
  status: 0
  service: 1
latitude: 51.4824606
longitude: -0.2180941
altitude: 51.4175961812
position_covariance: [1.5850809999999997, 0.0, 0.0, 0.0, 1.5850809999999997, 0.0, 0.0, 0.0, 5.716881]
position_covariance_type: 2
---
header: 
  seq: 2553
  stamp: 
    secs: 1558789577
    nsecs: 305986910
  frame_id: "base_link"
status: 
  status: 0
  service: 1
latitude: 51.4824627
longitude: -0.2180927
altitude: 51.6085971203
position_covariance: [1.6002249999999998, 0.0, 0.0, 0.0, 1.6002249999999998, 0.0, 0.0, 0.0, 5.736025]
position_covariance_type: 2
---
header: 
  seq: 2554
  stamp: 
    secs: 1558789577
    nsecs: 513506280
  frame_id: "base_link"
status: 
  status: 0
  service: 1
latitude: 51.4824649
longitude: -0.218091
altitude: 51.9045978348
position_covariance: [1.6154409999999997, 0.0, 0.0, 0.0, 1.6154409999999997, 0.0, 0.0, 0.0, 5.7552010000000005]
position_covariance_type: 2
---
header: 
  seq: 2555
  stamp: 
    secs: 1558789577
    nsecs: 704205196
  frame_id: "base_link"
status: 
  status: 0
  service: 1
latitude: 51.482467
longitude: -0.2180897
altitude: 51.9655988892
position_covariance: [1.633284, 0.0, 0.0, 0.0, 1.633284, 0.0, 0.0, 0.0, 5.764800999999999]
position_covariance_type: 2
---
header: 
  seq: 2556
  stamp: 
    secs: 1558789577
    nsecs: 902985172
  frame_id: "base_link"
status: 
  status: 0
  service: 1
latitude: 51.4824694
longitude: -0.2180883
altitude: 52.0596001933
position_covariance: [1.6486560000000001, 0.0, 0.0, 0.0, 1.6486560000000001, 0.0, 0.0, 0.0, 5.784024999999999]
position_covariance_type: 2
---
header: 
  seq: 2557
  stamp: 
    secs: 1558789578
    nsecs: 109537787
  frame_id: "base_link"
status: 
  status: 0
  service: 1
latitude: 51.482471
longitude: -0.2180873
altitude: 52.0906009857
position_covariance: [1.6615209999999998, 0.0, 0.0, 0.0, 1.6615209999999998, 0.0, 0.0, 0.0, 5.779216]
position_covariance_type: 2
---
header: 
  seq: 2558
  stamp: 
    secs: 1558789578
    nsecs: 304245140
  frame_id: "base_link"
status: 
  status: 0
  service: 1
latitude: 51.4824729
longitude: -0.2180853
altitude: 52.1926009889
position_covariance: [1.674436, 0.0, 0.0, 0.0, 1.674436, 0.0, 0.0, 0.0, 5.803280999999999]
position_covariance_type: 2
---
header: 
  seq: 2559
  stamp: 
    secs: 1558789578
    nsecs: 507987197
  frame_id: "base_link"
status: 
  status: 0
  service: 1
latitude: 51.4824751
longitude: -0.2180836
altitude: 52.2776017033
position_covariance: [1.687401, 0.0, 0.0, 0.0, 1.687401, 0.0, 0.0, 0.0, 5.822568999999999]
position_covariance_type: 2
---
header: 
  seq: 2560
  stamp: 
    secs: 1558789578
    nsecs: 706136153
  frame_id: "base_link"
status: 
  status: 0
  service: 1
latitude: 51.4824769
longitude: -0.2180822
altitude: 52.3076022774
position_covariance: [1.7030249999999998, 0.0, 0.0, 0.0, 1.7030249999999998, 0.0, 0.0, 0.0, 5.846724000000001]
position_covariance_type: 2
---
header: 
  seq: 2561
  stamp: 
    secs: 1558789578
    nsecs: 896503234
  frame_id: "base_link"
status: 
  status: 0
  service: 1
latitude: 51.4824787
longitude: -0.2180806
altitude: 52.3846026206
position_covariance: [1.718721, 0.0, 0.0, 0.0, 1.718721, 0.0, 0.0, 0.0, 5.875776]
position_covariance_type: 2
---
header: 
  seq: 2562
  stamp: 
    secs: 1558789579
    nsecs: 101278442
  frame_id: "base_link"
status: 
  status: 0
  service: 1
latitude: 51.482481
longitude: -0.2180783
altitude: 52.5436027641
position_covariance: [1.7292249999999998, 0.0, 0.0, 0.0, 1.7292249999999998, 0.0, 0.0, 0.0, 5.8951839999999995]
position_covariance_type: 2
---
header: 
  seq: 2563
  stamp: 
    secs: 1558789579
    nsecs: 304652757
  frame_id: "base_link"
status: 
  status: 0
  service: 1
latitude: 51.4824829
longitude: -0.2180763
altitude: 52.6476027673
position_covariance: [1.7371240000000001, 0.0, 0.0, 0.0, 1.7371240000000001, 0.0, 0.0, 0.0, 5.9097610000000005]
position_covariance_type: 2
---
header: 
  seq: 2564
  stamp: 
    secs: 1558789579
    nsecs: 510794076
  frame_id: "base_link"
status: 
  status: 0
  service: 1
latitude: 51.4824848
longitude: -0.2180752
altitude: 52.7086038092
position_covariance: [1.731856, 0.0, 0.0, 0.0, 1.731856, 0.0, 0.0, 0.0, 5.880624999999999]
position_covariance_type: 2
---
header: 
  seq: 2565
  stamp: 
    secs: 1558789579
    nsecs: 705816891
  frame_id: "base_link"
status: 
  status: 0
  service: 1
latitude: 51.4824864
longitude: -0.218074
altitude: 52.7286043708
position_covariance: [1.7371240000000001, 0.0, 0.0, 0.0, 1.7371240000000001, 0.0, 0.0, 0.0, 5.900040999999999]
position_covariance_type: 2
---
header: 
  seq: 2566
  stamp: 
    secs: 1558789579
    nsecs: 900303833
  frame_id: "base_link"
status: 
  status: 0
  service: 1
latitude: 51.4824878
longitude: -0.2180735
altitude: 52.7396054969
position_covariance: [1.7450409999999998, 0.0, 0.0, 0.0, 1.7450409999999998, 0.0, 0.0, 0.0, 5.924356]
position_covariance_type: 2
---
header: 
  seq: 2567
  stamp: 
    secs: 1558789580
    nsecs: 103589632
  frame_id: "base_link"
status: 
  status: 0
  service: 1
latitude: 51.4824894
longitude: -0.218072
altitude: 52.8006057122
position_covariance: [1.7503289999999998, 0.0, 0.0, 0.0, 1.7503289999999998, 0.0, 0.0, 0.0, 5.958480999999999]
position_covariance_type: 2
---
header: 
  seq: 2568
  stamp: 
    secs: 1558789580
    nsecs: 302769168
  frame_id: "base_link"
status: 
  status: 0
  service: 1
latitude: 51.4824907
longitude: -0.2180699
altitude: 52.8616048699
position_covariance: [1.7450409999999998, 0.0, 0.0, 0.0, 1.7450409999999998, 0.0, 0.0, 0.0, 5.938968999999999]
position_covariance_type: 2
---
header: 
  seq: 2569
  stamp: 
    secs: 1558789580
    nsecs: 501723162
  frame_id: "base_link"
status: 
  status: 0
  service: 1
latitude: 51.4824918
longitude: -0.2180679
altitude: 52.9936038998
position_covariance: [1.731856, 0.0, 0.0, 0.0, 1.731856, 0.0, 0.0, 0.0, 5.875776]
position_covariance_type: 2
---
header: 
  seq: 2570
  stamp: 
    secs: 1558789580
    nsecs: 708309490
  frame_id: "base_link"
status: 
  status: 0
  service: 1
latitude: 51.4824924
longitude: -0.218067
altitude: 52.896603591
position_covariance: [1.7213440000000002, 0.0, 0.0, 0.0, 1.7213440000000002, 0.0, 0.0, 0.0, 5.8564]
position_covariance_type: 2
---
header: 
  seq: 2571
  stamp: 
    secs: 1558789580
    nsecs: 903269101
  frame_id: "base_link"
status: 
  status: 0
  service: 1
latitude: 51.4824926
longitude: -0.2180658
altitude: 52.8666024493
position_covariance: [1.7265960000000002, 0.0, 0.0, 0.0, 1.7265960000000002, 0.0, 0.0, 0.0, 5.866084000000001]
position_covariance_type: 2
---
header: 
  seq: 2572
  stamp: 
    secs: 1558789581
    nsecs: 114338051
  frame_id: "base_link"
status: 
  status: 0
  service: 1
latitude: 51.4824932
longitude: -0.2180644
altitude: 52.8476015634
position_covariance: [1.7476840000000002, 0.0, 0.0, 0.0, 1.7476840000000002, 0.0, 0.0, 0.0, 5.900040999999999]
position_covariance_type: 2
---
header: 
  seq: 2573
  stamp: 
    secs: 1558789581
    nsecs: 313830815
  frame_id: "base_link"
status: 
  status: 0
  service: 1
latitude: 51.4824939
longitude: -0.2180638
altitude: 52.7376017225
position_covariance: [1.771561, 0.0, 0.0, 0.0, 1.771561, 0.0, 0.0, 0.0, 5.943844000000001]
position_covariance_type: 2
---
header: 
  seq: 2574
  stamp: 
    secs: 1558789581
    nsecs: 512412657
  frame_id: "base_link"
status: 
  status: 0
  service: 1
latitude: 51.4824946
longitude: -0.2180625
altitude: 52.6266010736
position_covariance: [1.7956000000000003, 0.0, 0.0, 0.0, 1.7956000000000003, 0.0, 0.0, 0.0, 5.987809]
position_covariance_type: 2
---
header: 
  seq: 2575
  stamp: 
    secs: 1558789581
    nsecs: 707064398
  frame_id: "base_link"
status: 
  status: 0
  service: 1
latitude: 51.4824953
longitude: -0.21806
altitude: 52.7535990398
position_covariance: [1.8171040000000003, 0.0, 0.0, 0.0, 1.8171040000000003, 0.0, 0.0, 0.0, 5.982916000000001]
position_covariance_type: 2
---
header: 
  seq: 2576
  stamp: 
    secs: 1558789581
    nsecs: 897263317
  frame_id: "base_link"
status: 
  status: 0
  service: 1
latitude: 51.4824955
longitude: -0.2180586
altitude: 52.7045976672
position_covariance: [1.8333160000000002, 0.0, 0.0, 0.0, 1.8333160000000002, 0.0, 0.0, 0.0, 5.973135999999999]
position_covariance_type: 2
---
header: 
  seq: 2577
  stamp: 
    secs: 1558789582
    nsecs: 107148913
  frame_id: "base_link"
status: 
  status: 0
  service: 1
latitude: 51.4824953
longitude: -0.2180583
altitude: 52.5215970777
position_covariance: [1.8604960000000004, 0.0, 0.0, 0.0, 1.8604960000000004, 0.0, 0.0, 0.0, 5.9976009999999995]
position_covariance_type: 2
---
header: 
  seq: 2578
  stamp: 
    secs: 1558789582
    nsecs: 309348577
  frame_id: "base_link"
status: 
  status: 0
  service: 1
latitude: 51.4824952
longitude: -0.2180574
altitude: 52.4065959173
position_covariance: [1.8933759999999997, 0.0, 0.0, 0.0, 1.8933759999999997, 0.0, 0.0, 0.0, 6.012303999999999]
position_covariance_type: 2
---
header: 
  seq: 2579
  stamp: 
    secs: 1558789582
    nsecs: 512644377
  frame_id: "base_link"
status: 
  status: 0
  service: 1
latitude: 51.4824952
longitude: -0.2180567
altitude: 52.3255951093
position_covariance: [1.9209959999999997, 0.0, 0.0, 0.0, 1.9209959999999997, 0.0, 0.0, 0.0, 6.031936]
position_covariance_type: 2
---
header: 
  seq: 2580
  stamp: 
    secs: 1558789582
    nsecs: 699424617
  frame_id: "base_link"
status: 
  status: 0
  service: 1
latitude: 51.4824952
longitude: -0.2180566
altitude: 52.2085949939
position_covariance: [1.957201, 0.0, 0.0, 0.0, 1.957201, 0.0, 0.0, 0.0, 6.066369000000001]
position_covariance_type: 2
---
header: 
  seq: 2581
  stamp: 
    secs: 1558789582
    nsecs: 900408016
  frame_id: "base_link"
status: 
  status: 0
  service: 1
latitude: 51.4824953
longitude: -0.2180566
altitude: 52.1395951156
position_covariance: [1.996569, 0.0, 0.0, 0.0, 1.996569, 0.0, 0.0, 0.0, 6.120676000000001]
position_covariance_type: 2
---
header: 
  seq: 2582
  stamp: 
    secs: 1558789583
    nsecs: 112083686
  frame_id: "base_link"
status: 
  status: 0
  service: 1
latitude: 51.4824948
longitude: -0.218058
altitude: 51.9905961231
position_covariance: [2.024929, 0.0, 0.0, 0.0, 2.024929, 0.0, 0.0, 0.0, 6.130576]
position_covariance_type: 2
---
header: 
  seq: 2583
  stamp: 
    secs: 1558789583
    nsecs: 303681070
  frame_id: "base_link"
status: 
  status: 0
  service: 1
latitude: 51.4824944
longitude: -0.218059
altitude: 51.9675967907
position_covariance: [2.0563559999999996, 0.0, 0.0, 0.0, 2.0563559999999996, 0.0, 0.0, 0.0, 6.155360999999999]
position_covariance_type: 2
---
header: 
  seq: 2584
  stamp: 
    secs: 1558789583
    nsecs: 509271236
  frame_id: "base_link"
status: 
  status: 0
  service: 1
latitude: 51.4824946
longitude: -0.2180592
altitude: 52.1665972648
position_covariance: [2.0736, 0.0, 0.0, 0.0, 2.0736, 0.0, 0.0, 0.0, 6.170256]
position_covariance_type: 2
---
header: 
  seq: 2585
  stamp: 
    secs: 1558789583
    nsecs: 708834501
  frame_id: "base_link"
status: 
  status: 0
  service: 1
latitude: 51.4824945
longitude: -0.2180604
altitude: 52.1745985282
position_covariance: [2.0736, 0.0, 0.0, 0.0, 2.0736, 0.0, 0.0, 0.0, 6.115728999999999]
position_covariance_type: 2
---
header: 
  seq: 2586
  stamp: 
    secs: 1558789583
    nsecs: 908418915
  frame_id: "base_link"
status: 
  status: 0
  service: 1
latitude: 51.4824939
longitude: -0.2180614
altitude: 52.0625989524
position_covariance: [2.085136, 0.0, 0.0, 0.0, 2.085136, 0.0, 0.0, 0.0, 6.120676000000001]
position_covariance_type: 2
---
header: 
  seq: 2587
  stamp: 
    secs: 1558789584
    nsecs: 118792106
  frame_id: "base_link"
status: 
  status: 0
  service: 1
latitude: 51.482494
longitude: -0.218062
altitude: 51.8425997666
position_covariance: [2.096704, 0.0, 0.0, 0.0, 2.096704, 0.0, 0.0, 0.0, 6.081156000000001]
position_covariance_type: 2
---
header: 
  seq: 2588
  stamp: 
    secs: 1558789584
    nsecs: 306258308
  frame_id: "base_link"
status: 
  status: 0
  service: 1
latitude: 51.4824942
longitude: -0.2180623
altitude: 51.7026003562
position_covariance: [2.090916, 0.0, 0.0, 0.0, 2.090916, 0.0, 0.0, 0.0, 5.987809]
position_covariance_type: 2
---
header: 
  seq: 2589
  stamp: 
    secs: 1558789584
    nsecs: 513413122
  frame_id: "base_link"
status: 
  status: 0
  service: 1
latitude: 51.4824942
longitude: -0.2180627
altitude: 51.5486008178
position_covariance: [2.082249, 0.0, 0.0, 0.0, 2.082249, 0.0, 0.0, 0.0, 5.9049000000000005]
position_covariance_type: 2
---
header: 
  seq: 2590
  stamp: 
    secs: 1558789584
    nsecs: 708369946
  frame_id: "base_link"
status: 
  status: 0
  service: 1
latitude: 51.4824941
longitude: -0.2180629
altitude: 51.413600927
position_covariance: [2.0736, 0.0, 0.0, 0.0, 2.0736, 0.0, 0.0, 0.0, 5.832225]
position_covariance_type: 2
---
header: 
  seq: 2591
  stamp: 
    secs: 1558789584
    nsecs: 906158040
  frame_id: "base_link"
status: 
  status: 0
  service: 1
latitude: 51.4824939
longitude: -0.2180626
altitude: 51.3616003375
position_covariance: [2.067844, 0.0, 0.0, 0.0, 2.067844, 0.0, 0.0, 0.0, 5.774409]
position_covariance_type: 2
---
header: 
  seq: 2592
  stamp: 
    secs: 1558789585
    nsecs: 110085352
  frame_id: "base_link"
status: 
  status: 0
  service: 1
latitude: 51.4824936
longitude: -0.2180625
altitude: 51.3685998571
position_covariance: [2.0707210000000003, 0.0, 0.0, 0.0, 2.0707210000000003, 0.0, 0.0, 0.0, 5.745608999999999]
position_covariance_type: 2
---
header: 
  seq: 2593
  stamp: 
    secs: 1558789585
    nsecs: 304337557
  frame_id: "base_link"
status: 
  status: 0
  service: 1
latitude: 51.4824934
longitude: -0.2180622
altitude: 51.4055992675
position_covariance: [2.0764810000000002, 0.0, 0.0, 0.0, 2.0764810000000002, 0.0, 0.0, 0.0, 5.726448999999999]
position_covariance_type: 2
---
header: 
  seq: 2594
  stamp: 
    secs: 1558789585
    nsecs: 515026878
  frame_id: "base_link"
status: 
  status: 0
  service: 1
latitude: 51.4824932
longitude: -0.2180618
altitude: 51.4375985625
position_covariance: [2.085136, 0.0, 0.0, 0.0, 2.085136, 0.0, 0.0, 0.0, 5.716881]
position_covariance_type: 2
---
header: 
  seq: 2595
  stamp: 
    secs: 1558789585
    nsecs: 708040957
  frame_id: "base_link"
status: 
  status: 0
  service: 1
latitude: 51.4824931
longitude: -0.2180619
altitude: 51.4215985563
position_covariance: [2.096704, 0.0, 0.0, 0.0, 2.096704, 0.0, 0.0, 0.0, 5.7121]
position_covariance_type: 2
---
header: 
  seq: 2596
  stamp: 
    secs: 1558789585
    nsecs: 900849395
  frame_id: "base_link"
status: 
  status: 0
  service: 1
latitude: 51.4824931
longitude: -0.2180619
altitude: 51.4275985563
position_covariance: [2.1141159999999997, 0.0, 0.0, 0.0, 2.1141159999999997, 0.0, 0.0, 0.0, 5.7121]
position_covariance_type: 2
---
header: 
  seq: 2597
  stamp: 
    secs: 1558789586
    nsecs: 112909466
  frame_id: "base_link"
status: 
  status: 0
  service: 1
latitude: 51.482493
longitude: -0.2180622
altitude: 51.4205987809
position_covariance: [2.1286810000000003, 0.0, 0.0, 0.0, 2.1286810000000003, 0.0, 0.0, 0.0, 5.7121]
position_covariance_type: 2
---
header: 
  seq: 2598
  stamp: 
    secs: 1558789586
    nsecs: 305980109
  frame_id: "base_link"
status: 
  status: 0
  service: 1
latitude: 51.482493
longitude: -0.2180622
altitude: 51.4765987809
position_covariance: [2.1315999999999997, 0.0, 0.0, 0.0, 2.1315999999999997, 0.0, 0.0, 0.0, 5.673924]
position_covariance_type: 2
---
header: 
  seq: 2599
  stamp: 
    secs: 1558789586
    nsecs: 510111037
  frame_id: "base_link"
status: 
  status: 0
  service: 1
latitude: 51.4824928
longitude: -0.2180625
altitude: 51.4695988838
position_covariance: [2.1315999999999997, 0.0, 0.0, 0.0, 2.1315999999999997, 0.0, 0.0, 0.0, 5.640625]
position_covariance_type: 2
---
header: 
  seq: 2600
  stamp: 
    secs: 1558789586
    nsecs: 704991977
  frame_id: "base_link"
status: 
  status: 0
  service: 1
latitude: 51.4824926
longitude: -0.2180629
altitude: 51.4545991022
position_covariance: [2.1286810000000003, 0.0, 0.0, 0.0, 2.1286810000000003, 0.0, 0.0, 0.0, 5.607423999999999]
position_covariance_type: 2
---
header: 
  seq: 2601
  stamp: 
    secs: 1558789586
    nsecs: 907100899
  frame_id: "base_link"
status: 
  status: 0
  service: 1
latitude: 51.4824926
longitude: -0.2180634
altitude: 51.4065996793
position_covariance: [2.1286810000000003, 0.0, 0.0, 0.0, 2.1286810000000003, 0.0, 0.0, 0.0, 5.579044000000001]
position_covariance_type: 2
---
header: 
  seq: 2602
  stamp: 
    secs: 1558789587
    nsecs: 106938237
  frame_id: "base_link"
status: 
  status: 0
  service: 1
latitude: 51.4824929
longitude: -0.2180633
altitude: 51.4055999288
position_covariance: [2.1286810000000003, 0.0, 0.0, 0.0, 2.1286810000000003, 0.0, 0.0, 0.0, 5.560164]
position_covariance_type: 2
---
header: 
  seq: 2603
  stamp: 
    secs: 1558789587
    nsecs: 295123234
  frame_id: "base_link"
status: 
  status: 0
  service: 1
latitude: 51.4824932
longitude: -0.2180634
altitude: 51.4016004092
position_covariance: [2.1286810000000003, 0.0, 0.0, 0.0, 2.1286810000000003, 0.0, 0.0, 0.0, 5.531903999999999]
position_covariance_type: 2
---
header: 
  seq: 2604
  stamp: 
    secs: 1558789587
    nsecs: 509942876
  frame_id: "base_link"
status: 
  status: 0
  service: 1
latitude: 51.4824934
longitude: -0.2180633
altitude: 51.4386005371
position_covariance: [2.1257639999999998, 0.0, 0.0, 0.0, 2.1257639999999998, 0.0, 0.0, 0.0, 5.503716000000001]
position_covariance_type: 2
---
header: 
  seq: 2605
  stamp: 
    secs: 1558789587
    nsecs: 703783989
  frame_id: "base_link"
status: 
  status: 0
  service: 1
latitude: 51.4824936
longitude: -0.2180631
altitude: 51.4576005496
