header: 
  seq: 586
  stamp: 
    secs: 1558789183
    nsecs: 909399222
  frame_id: "base_link"
status: 
  status: 0
  service: 1
latitude: 51.482442
longitude: -0.2180492
altitude: 55.9935217315
position_covariance: [0.047089, 0.0, 0.0, 0.0, 0.047089, 0.0, 0.0, 0.0, 0.07562500000000001]
position_covariance_type: 2
---
header: 
  seq: 587
  stamp: 
    secs: 1558789184
    nsecs: 107216599
  frame_id: "base_link"
status: 
  status: 0
  service: 1
latitude: 51.4824419
longitude: -0.2180494
altitude: 55.9835218407
position_covariance: [0.047524, 0.0, 0.0, 0.0, 0.047524, 0.0, 0.0, 0.0, 0.07728400000000002]
position_covariance_type: 2
---
header: 
  seq: 588
  stamp: 
    secs: 1558789184
    nsecs: 306888242
  frame_id: "base_link"
status: 
  status: 0
  service: 1
latitude: 51.4824419
longitude: -0.2180493
altitude: 55.9905217253
position_covariance: [0.047961, 0.0, 0.0, 0.0, 0.047961, 0.0, 0.0, 0.0, 0.07784100000000002]
position_covariance_type: 2
---
header: 
  seq: 589
  stamp: 
    secs: 1558789184
    nsecs: 527252621
  frame_id: "base_link"
status: 
  status: 0
  service: 1
latitude: 51.482442
longitude: -0.2180493
altitude: 55.9965218469
position_covariance: [0.0484, 0.0, 0.0, 0.0, 0.0484, 0.0, 0.0, 0.0, 0.07840000000000001]
position_covariance_type: 2
---
header: 
  seq: 590
  stamp: 
    secs: 1558789184
    nsecs: 703583901
  frame_id: "base_link"
status: 
  status: 0
  service: 1
latitude: 51.4824421
longitude: -0.2180492
altitude: 56.0165218532
position_covariance: [0.0484, 0.0, 0.0, 0.0, 0.0484, 0.0, 0.0, 0.0, 0.07840000000000001]
position_covariance_type: 2
---
header: 
  seq: 591
  stamp: 
    secs: 1558789184
    nsecs: 906559322
  frame_id: "base_link"
status: 
  status: 0
  service: 1
latitude: 51.4824422
longitude: -0.2180485
altitude: 56.086521167
position_covariance: [0.047524, 0.0, 0.0, 0.0, 0.047524, 0.0, 0.0, 0.0, 0.07672900000000002]
position_covariance_type: 2
---
header: 
  seq: 592
  stamp: 
    secs: 1558789185
    nsecs: 106126953
  frame_id: "base_link"
status: 
  status: 0
  service: 1
latitude: 51.4824423
longitude: -0.218048
altitude: 56.1315207116
position_covariance: [0.047089, 0.0, 0.0, 0.0, 0.047089, 0.0, 0.0, 0.0, 0.07617600000000001]
position_covariance_type: 2
---
header: 
  seq: 593
  stamp: 
    secs: 1558789185
    nsecs: 320401541
  frame_id: "base_link"
status: 
  status: 0
  service: 1
latitude: 51.4824422
longitude: -0.2180482
altitude: 56.1165208207
position_covariance: [0.046655999999999996, 0.0, 0.0, 0.0, 0.046655999999999996, 0.0, 0.0, 0.0, 0.07562500000000001]
position_covariance_type: 2
---
header: 
  seq: 594
  stamp: 
    secs: 1558789185
    nsecs: 537386909
  frame_id: "base_link"
status: 
  status: 0
  service: 1
latitude: 51.4824421
longitude: -0.2180485
altitude: 56.0785210453
position_covariance: [0.047089, 0.0, 0.0, 0.0, 0.047089, 0.0, 0.0, 0.0, 0.07617600000000001]
position_covariance_type: 2
---
header: 
  seq: 595
  stamp: 
    secs: 1558789185
    nsecs: 707185079
  frame_id: "base_link"
status: 
  status: 0
  service: 1
latitude: 51.4824419
longitude: -0.2180487
altitude: 56.0495210328
position_covariance: [0.047089, 0.0, 0.0, 0.0, 0.047089, 0.0, 0.0, 0.0, 0.07617600000000001]
position_covariance_type: 2
---
header: 
  seq: 596
  stamp: 
    secs: 1558789185
    nsecs: 909272100
  frame_id: "base_link"
status: 
  status: 0
  service: 1
latitude: 51.4824415
longitude: -0.2180483
altitude: 56.1955200845
position_covariance: [0.046224999999999995, 0.0, 0.0, 0.0, 0.046224999999999995, 0.0, 0.0, 0.0, 0.07452900000000001]
position_covariance_type: 2
---
header: 
  seq: 597
  stamp: 
    secs: 1558789186
    nsecs:  94409015
  frame_id: "base_link"
status: 
  status: 0
  service: 1
latitude: 51.4824413
longitude: -0.2180479
altitude: 56.2635193796
position_covariance: [0.046224999999999995, 0.0, 0.0, 0.0, 0.046224999999999995, 0.0, 0.0, 0.0, 0.07398400000000001]
position_covariance_type: 2
---
header: 
  seq: 598
  stamp: 
    secs: 1558789186
    nsecs: 310901279
  frame_id: "base_link"
status: 
  status: 0
  service: 1
latitude: 51.4824413
longitude: -0.2180476
altitude: 56.2975190333
position_covariance: [0.046224999999999995, 0.0, 0.0, 0.0, 0.046224999999999995, 0.0, 0.0, 0.0, 0.07452900000000001]
position_covariance_type: 2
---
header: 
  seq: 599
  stamp: 
    secs: 1558789186
    nsecs: 517298218
  frame_id: "base_link"
status: 
  status: 0
  service: 1
latitude: 51.4824413
longitude: -0.2180476
altitude: 56.3035190333
position_covariance: [0.046655999999999996, 0.0, 0.0, 0.0, 0.046655999999999996, 0.0, 0.0, 0.0, 0.07562500000000001]
position_covariance_type: 2
---
header: 
  seq: 600
  stamp: 
    secs: 1558789186
    nsecs: 705371349
  frame_id: "base_link"
status: 
  status: 0
  service: 1
latitude: 51.4824412
longitude: -0.2180477
altitude: 56.2985190271
position_covariance: [0.046224999999999995, 0.0, 0.0, 0.0, 0.046224999999999995, 0.0, 0.0, 0.0, 0.07452900000000001]
position_covariance_type: 2
---
header: 
  seq: 601
  stamp: 
    secs: 1558789186
    nsecs: 904938633
  frame_id: "base_link"
status: 
  status: 0
  service: 1
latitude: 51.4824406
longitude: -0.2180477
altitude: 56.4755182971
position_covariance: [0.045795999999999996, 0.0, 0.0, 0.0, 0.045795999999999996, 0.0, 0.0, 0.0, 0.0729]
position_covariance_type: 2
---
header: 
  seq: 602
  stamp: 
    secs: 1558789187
    nsecs: 107852749
  frame_id: "base_link"
status: 
  status: 0
  service: 1
latitude: 51.4824404
longitude: -0.2180474
altitude: 56.5605177076
position_covariance: [0.045369, 0.0, 0.0, 0.0, 0.045369, 0.0, 0.0, 0.0, 0.07236100000000001]
position_covariance_type: 2
---
header: 
  seq: 603
  stamp: 
    secs: 1558789187
    nsecs: 310915516
  frame_id: "base_link"
status: 
  status: 0
  service: 1
latitude: 51.4824406
longitude: -0.2180469
altitude: 56.6215173738
position_covariance: [0.045369, 0.0, 0.0, 0.0, 0.045369, 0.0, 0.0, 0.0, 0.07236100000000001]
position_covariance_type: 2
---
header: 
  seq: 604
  stamp: 
    secs: 1558789187
    nsecs: 513849618
  frame_id: "base_link"
status: 
  status: 0
  service: 1
latitude: 51.4824407
longitude: -0.2180466
altitude: 56.6505171493
position_covariance: [0.045795999999999996, 0.0, 0.0, 0.0, 0.045795999999999996, 0.0, 0.0, 0.0, 0.073441]
position_covariance_type: 2
---
header: 
  seq: 605
  stamp: 
    secs: 1558789187
    nsecs: 708831504
  frame_id: "base_link"
status: 
  status: 0
  service: 1
latitude: 51.4824407
longitude: -0.2180467
altitude: 56.6505172647
position_covariance: [0.045795999999999996, 0.0, 0.0, 0.0, 0.045795999999999996, 0.0, 0.0, 0.0, 0.0729]
position_covariance_type: 2
---
header: 
  seq: 606
  stamp: 
    secs: 1558789187
    nsecs: 904598844
  frame_id: "base_link"
status: 
  status: 0
  service: 1
latitude: 51.4824405
longitude: -0.2180459
altitude: 56.7845160981
position_covariance: [0.044521, 0.0, 0.0, 0.0, 0.044521, 0.0, 0.0, 0.0, 0.07075600000000001]
position_covariance_type: 2
---
header: 
  seq: 607
  stamp: 
    secs: 1558789188
    nsecs: 115006014
  frame_id: "base_link"
status: 
  status: 0
  service: 1
latitude: 51.4824404
longitude: -0.2180455
altitude: 56.8255155148
position_covariance: [0.044521, 0.0, 0.0, 0.0, 0.044521, 0.0, 0.0, 0.0, 0.07022500000000001]
position_covariance_type: 2
---
header: 
  seq: 608
  stamp: 
    secs: 1558789188
    nsecs: 309613242
  frame_id: "base_link"
status: 
  status: 0
  service: 1
latitude: 51.4824402
longitude: -0.2180456
altitude: 56.8325153869
position_covariance: [0.044521, 0.0, 0.0, 0.0, 0.044521, 0.0, 0.0, 0.0, 0.07022500000000001]
position_covariance_type: 2
---
header: 
  seq: 609
  stamp: 
    secs: 1558789188
    nsecs: 510574350
  frame_id: "base_link"
status: 
  status: 0
  service: 1
latitude: 51.4824402
longitude: -0.2180457
altitude: 56.8185155023
position_covariance: [0.044521, 0.0, 0.0, 0.0, 0.044521, 0.0, 0.0, 0.0, 0.07022500000000001]
position_covariance_type: 2
---
header: 
  seq: 610
  stamp: 
    secs: 1558789188
    nsecs: 714790939
  frame_id: "base_link"
status: 
  status: 0
  service: 1
latitude: 51.4824404
longitude: -0.2180455
altitude: 56.8405155148
position_covariance: [0.044944, 0.0, 0.0, 0.0, 0.044944, 0.0, 0.0, 0.0, 0.071289]
position_covariance_type: 2
---
header: 
  seq: 611
  stamp: 
    secs: 1558789188
    nsecs: 903128074
  frame_id: "base_link"
status: 
  status: 0
  service: 1
latitude: 51.4824401
longitude: -0.2180446
altitude: 56.9995141111
position_covariance: [0.043681, 0.0, 0.0, 0.0, 0.043681, 0.0, 0.0, 0.0, 0.06916900000000001]
position_covariance_type: 2
---
header: 
  seq: 612
  stamp: 
    secs: 1558789189
    nsecs: 104247776
  frame_id: "base_link"
status: 
  status: 0
  service: 1
latitude: 51.48244
longitude: -0.218044
altitude: 57.085513297
position_covariance: [0.043264, 0.0, 0.0, 0.0, 0.043264, 0.0, 0.0, 0.0, 0.06760000000000001]
position_covariance_type: 2
---
header: 
  seq: 613
  stamp: 
    secs: 1558789189
    nsecs: 318849799
  frame_id: "base_link"
status: 
  status: 0
  service: 1
latitude: 51.48244
longitude: -0.218044
altitude: 57.086513297
position_covariance: [0.037636, 0.0, 0.0, 0.0, 0.037636, 0.0, 0.0, 0.0, 0.065536]
position_covariance_type: 2
---
header: 
  seq: 614
  stamp: 
    secs: 1558789189
    nsecs: 522786542
  frame_id: "base_link"
status: 
  status: 0
  service: 1
latitude: 51.48244
longitude: -0.2180437
altitude: 57.1215129507
position_covariance: [0.036481, 0.0, 0.0, 0.0, 0.036481, 0.0, 0.0, 0.0, 0.065025]
position_covariance_type: 2
---
header: 
  seq: 615
  stamp: 
    secs: 1558789189
    nsecs: 701351704
  frame_id: "base_link"
status: 
  status: 0
  service: 1
latitude: 51.48244
longitude: -0.2180438
altitude: 57.1155130661
position_covariance: [0.0361, 0.0, 0.0, 0.0, 0.0361, 0.0, 0.0, 0.0, 0.064516]
position_covariance_type: 2
---
header: 
  seq: 616
  stamp: 
    secs: 1558789189
    nsecs: 908753981
  frame_id: "base_link"
status: 
  status: 0
  service: 1
latitude: 51.4824398
longitude: -0.2180437
altitude: 57.1885127074
position_covariance: [0.029928999999999997, 0.0, 0.0, 0.0, 0.029928999999999997, 0.0, 0.0, 0.0, 0.051076]
position_covariance_type: 2
---
header: 
  seq: 617
  stamp: 
    secs: 1558789190
    nsecs: 107590812
  frame_id: "base_link"
status: 
  status: 0
  service: 1
latitude: 51.4824396
longitude: -0.2180436
altitude: 57.2105123487
position_covariance: [0.028900000000000006, 0.0, 0.0, 0.0, 0.028900000000000006, 0.0, 0.0, 0.0, 0.047961]
position_covariance_type: 2
---
header: 
  seq: 618
  stamp: 
    secs: 1558789190
    nsecs: 310107152
  frame_id: "base_link"
status: 
  status: 0
  service: 1
latitude: 51.4824395
longitude: -0.2180438
altitude: 57.2205124579
position_covariance: [0.028900000000000006, 0.0, 0.0, 0.0, 0.028900000000000006, 0.0, 0.0, 0.0, 0.047524]
position_covariance_type: 2
---
header: 
  seq: 619
  stamp: 
    secs: 1558789190
    nsecs: 520913251
  frame_id: "base_link"
status: 
  status: 0
  service: 1
latitude: 51.4824397
longitude: -0.2180438
altitude: 57.2265127012
position_covariance: [0.028900000000000006, 0.0, 0.0, 0.0, 0.028900000000000006, 0.0, 0.0, 0.0, 0.047524]
position_covariance_type: 2
---
header: 
  seq: 620
  stamp: 
    secs: 1558789190
    nsecs: 705522823
  frame_id: "base_link"
status: 
  status: 0
  service: 1
latitude: 51.4824397
longitude: -0.2180437
altitude: 57.2295125858
position_covariance: [0.028900000000000006, 0.0, 0.0, 0.0, 0.028900000000000006, 0.0, 0.0, 0.0, 0.047524]
position_covariance_type: 2
---
header: 
  seq: 621
  stamp: 
    secs: 1558789190
    nsecs: 910633701
  frame_id: "base_link"
status: 
  status: 0
  service: 1
latitude: 51.4824394
longitude: -0.2180434
altitude: 57.4095118746
position_covariance: [0.028561000000000003, 0.0, 0.0, 0.0, 0.028561000000000003, 0.0, 0.0, 0.0, 0.046224999999999995]
position_covariance_type: 2
---
header: 
  seq: 622
  stamp: 
    secs: 1558789191
    nsecs: 106270317
  frame_id: "base_link"
status: 
  status: 0
  service: 1
latitude: 51.4824391
longitude: -0.2180432
altitude: 57.4785112788
position_covariance: [0.028224000000000003, 0.0, 0.0, 0.0, 0.028224000000000003, 0.0, 0.0, 0.0, 0.046224999999999995]
position_covariance_type: 2
---
header: 
  seq: 623
  stamp: 
    secs: 1558789191
    nsecs: 309721313
  frame_id: "base_link"
status: 
  status: 0
  service: 1
latitude: 51.482439
longitude: -0.218043
altitude: 57.5205109263
position_covariance: [0.028224000000000003, 0.0, 0.0, 0.0, 0.028224000000000003, 0.0, 0.0, 0.0, 0.045795999999999996]
position_covariance_type: 2
---
header: 
  seq: 624
  stamp: 
    secs: 1558789191
    nsecs: 510645566
  frame_id: "base_link"
status: 
  status: 0
  service: 1
latitude: 51.482439
longitude: -0.2180432
altitude: 57.5165111571
position_covariance: [0.028561000000000003, 0.0, 0.0, 0.0, 0.028561000000000003, 0.0, 0.0, 0.0, 0.046224999999999995]
position_covariance_type: 2
---
header: 
  seq: 625
  stamp: 
    secs: 1558789191
    nsecs: 718229819
  frame_id: "base_link"
status: 
  status: 0
  service: 1
latitude: 51.4824392
longitude: -0.218043
altitude: 57.5285111696
position_covariance: [0.028561000000000003, 0.0, 0.0, 0.0, 0.028561000000000003, 0.0, 0.0, 0.0, 0.046224999999999995]
position_covariance_type: 2
---
header: 
  seq: 626
  stamp: 
    secs: 1558789191
    nsecs: 905931049
  frame_id: "base_link"
status: 
  status: 0
  service: 1
latitude: 51.4824391
longitude: -0.2180427
altitude: 57.6505107017
position_covariance: [0.027889000000000004, 0.0, 0.0, 0.0, 0.027889000000000004, 0.0, 0.0, 0.0, 0.044944]
position_covariance_type: 2
---
header: 
  seq: 627
  stamp: 
    secs: 1558789192
    nsecs: 115724487
  frame_id: "base_link"
status: 
  status: 0
  service: 1
latitude: 51.4824391
longitude: -0.2180424
altitude: 57.7075103555
position_covariance: [0.027889000000000004, 0.0, 0.0, 0.0, 0.027889000000000004, 0.0, 0.0, 0.0, 0.044521]
position_covariance_type: 2
---
header: 
  seq: 628
  stamp: 
    secs: 1558789192
    nsecs: 305886027
  frame_id: "base_link"
status: 
  status: 0
  service: 1
latitude: 51.4824389
longitude: -0.2180424
altitude: 57.7235101122
position_covariance: [0.028224000000000003, 0.0, 0.0, 0.0, 0.028224000000000003, 0.0, 0.0, 0.0, 0.044944]
position_covariance_type: 2
---
header: 
  seq: 629
  stamp: 
    secs: 1558789192
    nsecs: 521558934
  frame_id: "base_link"
status: 
  status: 0
  service: 1
latitude: 51.482439
longitude: -0.2180423
altitude: 57.7285101184
position_covariance: [0.028224000000000003, 0.0, 0.0, 0.0, 0.028224000000000003, 0.0, 0.0, 0.0, 0.044944]
position_covariance_type: 2
---
header: 
  seq: 630
  stamp: 
    secs: 1558789192
    nsecs: 704954295
  frame_id: "base_link"
status: 
  status: 0
  service: 1
latitude: 51.482439
longitude: -0.2180424
altitude: 57.7185102338
position_covariance: [0.028224000000000003, 0.0, 0.0, 0.0, 0.028224000000000003, 0.0, 0.0, 0.0, 0.044944]
position_covariance_type: 2
---
header: 
  seq: 631
  stamp: 
    secs: 1558789192
    nsecs: 896564568
  frame_id: "base_link"
status: 
  status: 0
  service: 1
latitude: 51.4824388
longitude: -0.2180422
altitude: 57.8105097597
position_covariance: [0.027889000000000004, 0.0, 0.0, 0.0, 0.027889000000000004, 0.0, 0.0, 0.0, 0.044521]
position_covariance_type: 2
---
header: 
  seq: 632
  stamp: 
    secs: 1558789193
    nsecs: 104541160
  frame_id: "base_link"
status: 
  status: 0
  service: 1
latitude: 51.4824388
longitude: -0.2180418
altitude: 57.870509298
position_covariance: [0.027889000000000004, 0.0, 0.0, 0.0, 0.027889000000000004, 0.0, 0.0, 0.0, 0.04409999999999999]
position_covariance_type: 2
---
header: 
  seq: 633
  stamp: 
    secs: 1558789193
    nsecs: 305310378
  frame_id: "base_link"
status: 
  status: 0
  service: 1
latitude: 51.4824386
longitude: -0.2180417
altitude: 57.8795089393
position_covariance: [0.027889000000000004, 0.0, 0.0, 0.0, 0.027889000000000004, 0.0, 0.0, 0.0, 0.04409999999999999]
position_covariance_type: 2
---
header: 
  seq: 634
  stamp: 
    secs: 1558789193
    nsecs: 517521670
  frame_id: "base_link"
status: 
  status: 0
  service: 1
latitude: 51.4824386
longitude: -0.218042
altitude: 57.8625092855
position_covariance: [0.027889000000000004, 0.0, 0.0, 0.0, 0.027889000000000004, 0.0, 0.0, 0.0, 0.043681]
position_covariance_type: 2
---
header: 
  seq: 635
  stamp: 
    secs: 1558789193
    nsecs: 719903718
  frame_id: "base_link"
status: 
  status: 0
  service: 1
latitude: 51.482439
longitude: -0.2180416
altitude: 57.8835093105
position_covariance: [0.027889000000000004, 0.0, 0.0, 0.0, 0.027889000000000004, 0.0, 0.0, 0.0, 0.04409999999999999]
position_covariance_type: 2
---
header: 
  seq: 636
  stamp: 
    secs: 1558789193
    nsecs: 902121736
  frame_id: "base_link"
status: 
  status: 0
  service: 1
latitude: 51.482439
longitude: -0.2180407
altitude: 57.9405082718
position_covariance: [0.027225000000000003, 0.0, 0.0, 0.0, 0.027225000000000003, 0.0, 0.0, 0.0, 0.042849]
position_covariance_type: 2
---
header: 
  seq: 637
  stamp: 
    secs: 1558789194
    nsecs: 110003782
  frame_id: "base_link"
status: 
  status: 0
  service: 1
latitude: 51.4824389
longitude: -0.2180404
altitude: 57.9735078039
position_covariance: [0.027225000000000003, 0.0, 0.0, 0.0, 0.027225000000000003, 0.0, 0.0, 0.0, 0.042435999999999995]
position_covariance_type: 2
---
header: 
  seq: 638
  stamp: 
    secs: 1558789194
    nsecs: 301743166
  frame_id: "base_link"
status: 
  status: 0
  service: 1
latitude: 51.4824388
longitude: -0.2180405
altitude: 57.9625077977
position_covariance: [0.027225000000000003, 0.0, 0.0, 0.0, 0.027225000000000003, 0.0, 0.0, 0.0, 0.042435999999999995]
position_covariance_type: 2
---
header: 
  seq: 639
  stamp: 
    secs: 1558789194
    nsecs: 516362625
  frame_id: "base_link"
status: 
  status: 0
  service: 1
latitude: 51.4824392
longitude: -0.2180401
altitude: 57.9935078227
position_covariance: [0.027225000000000003, 0.0, 0.0, 0.0, 0.027225000000000003, 0.0, 0.0, 0.0, 0.042435999999999995]
position_covariance_type: 2
---
header: 
  seq: 640
  stamp: 
    secs: 1558789194
    nsecs: 706086802
  frame_id: "base_link"
status: 
  status: 0
  service: 1
latitude: 51.482439
longitude: -0.2180401
altitude: 57.9925075794
position_covariance: [0.027556000000000004, 0.0, 0.0, 0.0, 0.027556000000000004, 0.0, 0.0, 0.0, 0.043264]
position_covariance_type: 2
---
header: 
  seq: 641
  stamp: 
    secs: 1558789194
    nsecs: 906288125
  frame_id: "base_link"
status: 
  status: 0
  service: 1
latitude: 51.482439
longitude: -0.2180392
altitude: 58.0825065407
position_covariance: [0.027225000000000003, 0.0, 0.0, 0.0, 0.027225000000000003, 0.0, 0.0, 0.0, 0.042435999999999995]
position_covariance_type: 2
---
header: 
  seq: 642
  stamp: 
    secs: 1558789195
    nsecs: 102287110
  frame_id: "base_link"
status: 
  status: 0
  service: 1
latitude: 51.4824389
longitude: -0.2180388
altitude: 58.1135059574
position_covariance: [0.027556000000000004, 0.0, 0.0, 0.0, 0.027556000000000004, 0.0, 0.0, 0.0, 0.042435999999999995]
position_covariance_type: 2
---
header: 
  seq: 643
  stamp: 
    secs: 1558789195
    nsecs: 316553827
  frame_id: "base_link"
status: 
  status: 0
  service: 1
latitude: 51.4824387
longitude: -0.2180388
altitude: 58.1165057141
position_covariance: [0.027889000000000004, 0.0, 0.0, 0.0, 0.027889000000000004, 0.0, 0.0, 0.0, 0.042849]
position_covariance_type: 2
---
header: 
  seq: 644
  stamp: 
    secs: 1558789195
    nsecs: 509968954
  frame_id: "base_link"
status: 
  status: 0
  service: 1
latitude: 51.4824387
longitude: -0.2180388
altitude: 58.1155057141
position_covariance: [0.027889000000000004, 0.0, 0.0, 0.0, 0.027889000000000004, 0.0, 0.0, 0.0, 0.042849]
position_covariance_type: 2
---
header: 
  seq: 645
  stamp: 
    secs: 1558789195
    nsecs: 708875640
  frame_id: "base_link"
status: 
  status: 0
  service: 1
latitude: 51.4824391
longitude: -0.2180387
altitude: 58.1295060853
position_covariance: [0.027225000000000003, 0.0, 0.0, 0.0, 0.027225000000000003, 0.0, 0.0, 0.0, 0.042435999999999995]
position_covariance_type: 2
---
header: 
  seq: 646
  stamp: 
    secs: 1558789195
    nsecs: 905375373
  frame_id: "base_link"
status: 
  status: 0
  service: 1
latitude: 51.4824391
longitude: -0.2180376
altitude: 58.2995048158
position_covariance: [0.029583999999999996, 0.0, 0.0, 0.0, 0.029583999999999996, 0.0, 0.0, 0.0, 0.04202499999999999]
position_covariance_type: 2
---
header: 
  seq: 647
  stamp: 
    secs: 1558789196
    nsecs: 107656419
  frame_id: "base_link"
status: 
  status: 0
  service: 1
latitude: 51.4824391
longitude: -0.2180369
altitude: 58.3895040079
position_covariance: [0.030275999999999997, 0.0, 0.0, 0.0, 0.030275999999999997, 0.0, 0.0, 0.0, 0.04202499999999999]
position_covariance_type: 2
---
header: 
  seq: 648
  stamp: 
    secs: 1558789196
    nsecs: 310832886
  frame_id: "base_link"
status: 
  status: 0
  service: 1
latitude: 51.482439
longitude: -0.2180368
altitude: 58.3985037708
position_covariance: [0.029928999999999997, 0.0, 0.0, 0.0, 0.029928999999999997, 0.0, 0.0, 0.0, 0.04161599999999999]
position_covariance_type: 2
---
header: 
  seq: 649
  stamp: 
    secs: 1558789196
    nsecs: 521678986
  frame_id: "base_link"
status: 
  status: 0
  service: 1
latitude: 51.4824391
longitude: -0.2180369
altitude: 58.3955040079
position_covariance: [0.029928999999999997, 0.0, 0.0, 0.0, 0.029928999999999997, 0.0, 0.0, 0.0, 0.04161599999999999]
position_covariance_type: 2
---
header: 
  seq: 650
  stamp: 
    secs: 1558789196
    nsecs: 708092846
  frame_id: "base_link"
status: 
  status: 0
  service: 1
latitude: 51.4824391
longitude: -0.2180369
altitude: 58.3965040079
position_covariance: [0.029928999999999997, 0.0, 0.0, 0.0, 0.029928999999999997, 0.0, 0.0, 0.0, 0.04161599999999999]
position_covariance_type: 2
---
header: 
  seq: 651
  stamp: 
    secs: 1558789196
    nsecs: 911015191
  frame_id: "base_link"
status: 
  status: 0
  service: 1
latitude: 51.4824393
longitude: -0.2180364
altitude: 58.4915036741
position_covariance: [0.026569000000000002, 0.0, 0.0, 0.0, 0.026569000000000002, 0.0, 0.0, 0.0, 0.039601000000000004]
position_covariance_type: 2
---
header: 
  seq: 652
  stamp: 
    secs: 1558789197
    nsecs: 107416905
  frame_id: "base_link"
status: 
  status: 0
  service: 1
latitude: 51.4824391
longitude: -0.2180363
altitude: 58.5175033154
position_covariance: [0.025921000000000003, 0.0, 0.0, 0.0, 0.025921000000000003, 0.0, 0.0, 0.0, 0.039601000000000004]
position_covariance_type: 2
---
header: 
  seq: 653
  stamp: 
    secs: 1558789197
    nsecs: 315883785
  frame_id: "base_link"
status: 
  status: 0
  service: 1
latitude: 51.4824391
longitude: -0.2180362
altitude: 58.5215032
position_covariance: [0.0256, 0.0, 0.0, 0.0, 0.0256, 0.0, 0.0, 0.0, 0.039601000000000004]
position_covariance_type: 2
---
header: 
  seq: 654
  stamp: 
    secs: 1558789197
    nsecs: 520064152
  frame_id: "base_link"
status: 
  status: 0
  service: 1
latitude: 51.4824394
longitude: -0.2180359
altitude: 58.5465032187
position_covariance: [0.0256, 0.0, 0.0, 0.0, 0.0256, 0.0, 0.0, 0.0, 0.039601000000000004]
position_covariance_type: 2
---
header: 
  seq: 655
  stamp: 
    secs: 1558789197
    nsecs: 706596668
  frame_id: "base_link"
status: 
  status: 0
  service: 1
latitude: 51.4824394
longitude: -0.2180358
altitude: 58.5555031033
position_covariance: [0.0256, 0.0, 0.0, 0.0, 0.0256, 0.0, 0.0, 0.0, 0.039601000000000004]
position_covariance_type: 2
---
header: 
  seq: 656
  stamp: 
    secs: 1558789197
    nsecs: 904871452
  frame_id: "base_link"
status: 
  status: 0
  service: 1
latitude: 51.4824396
longitude: -0.2180354
altitude: 58.591502885
position_covariance: [0.025281, 0.0, 0.0, 0.0, 0.025281, 0.0, 0.0, 0.0, 0.038809]
position_covariance_type: 2
---
header: 
  seq: 657
  stamp: 
    secs: 1558789198
    nsecs: 109730203
  frame_id: "base_link"
status: 
  status: 0
  service: 1
latitude: 51.4824395
longitude: -0.2180355
altitude: 58.5765028788
position_covariance: [0.025281, 0.0, 0.0, 0.0, 0.025281, 0.0, 0.0, 0.0, 0.038809]
position_covariance_type: 2
---
header: 
  seq: 658
  stamp: 
    secs: 1558789198
    nsecs: 307960209
  frame_id: "base_link"
status: 
  status: 0
  service: 1
latitude: 51.4824395
longitude: -0.2180354
altitude: 58.5845027634
position_covariance: [0.025281, 0.0, 0.0, 0.0, 0.025281, 0.0, 0.0, 0.0, 0.038416000000000006]
position_covariance_type: 2
---
header: 
  seq: 659
  stamp: 
    secs: 1558789198
    nsecs: 525864207
  frame_id: "base_link"
status: 
  status: 0
  service: 1
latitude: 51.4824396
longitude: -0.2180354
altitude: 58.587502885
position_covariance: [0.025281, 0.0, 0.0, 0.0, 0.025281, 0.0, 0.0, 0.0, 0.038809]
position_covariance_type: 2
---
header: 
  seq: 660
  stamp: 
    secs: 1558789198
    nsecs: 705829140
  frame_id: "base_link"
status: 
  status: 0
  service: 1
latitude: 51.4824395
longitude: -0.2180354
altitude: 58.5855027634
position_covariance: [0.025281, 0.0, 0.0, 0.0, 0.025281, 0.0, 0.0, 0.0, 0.038809]
position_covariance_type: 2
---
header: 
  seq: 661
  stamp: 
    secs: 1558789198
    nsecs: 909198749
  frame_id: "base_link"
status: 
  status: 0
  service: 1
latitude: 51.4824396
longitude: -0.2180348
altitude: 58.5785021925
position_covariance: [0.024964, 0.0, 0.0, 0.0, 0.024964, 0.0, 0.0, 0.0, 0.038025]
position_covariance_type: 2
---
header: 
  seq: 662
  stamp: 
    secs: 1558789199
    nsecs: 107638621
  frame_id: "base_link"
status: 
  status: 0
  service: 1
latitude: 51.4824395
longitude: -0.2180347
altitude: 58.5745019555
position_covariance: [0.024649, 0.0, 0.0, 0.0, 0.024649, 0.0, 0.0, 0.0, 0.037636]
position_covariance_type: 2
---
header: 
  seq: 663
  stamp: 
    secs: 1558789199
    nsecs: 314870838
  frame_id: "base_link"
status: 
  status: 0
  service: 1
latitude: 51.4824395
longitude: -0.2180347
altitude: 58.5775019555
position_covariance: [0.024649, 0.0, 0.0, 0.0, 0.024649, 0.0, 0.0, 0.0, 0.037636]
position_covariance_type: 2
---
header: 
  seq: 664
  stamp: 
    secs: 1558789199
    nsecs: 521358746
  frame_id: "base_link"
status: 
  status: 0
  service: 1
latitude: 51.4824398
longitude: -0.2180345
altitude: 58.5875020896
position_covariance: [0.024649, 0.0, 0.0, 0.0, 0.024649, 0.0, 0.0, 0.0, 0.038025]
position_covariance_type: 2
---
header: 
  seq: 665
  stamp: 
    secs: 1558789199
    nsecs: 695910318
  frame_id: "base_link"
status: 
  status: 0
  service: 1
latitude: 51.4824398
longitude: -0.2180344
altitude: 58.5865019742
position_covariance: [0.024649, 0.0, 0.0, 0.0, 0.024649, 0.0, 0.0, 0.0, 0.038025]
position_covariance_type: 2
---
header: 
  seq: 666
  stamp: 
    secs: 1558789199
    nsecs: 904249682
  frame_id: "base_link"
status: 
  status: 0
  service: 1
latitude: 51.48244
longitude: -0.2180339
altitude: 58.6085016405
position_covariance: [0.024336, 0.0, 0.0, 0.0, 0.024336, 0.0, 0.0, 0.0, 0.037249000000000004]
position_covariance_type: 2
---
header: 
  seq: 667
  stamp: 
    secs: 1558789200
    nsecs: 114049518
  frame_id: "base_link"
status: 
  status: 0
  service: 1
latitude: 51.4824399
longitude: -0.2180339
altitude: 58.6005015188
position_covariance: [0.024336, 0.0, 0.0, 0.0, 0.024336, 0.0, 0.0, 0.0, 0.036864]
position_covariance_type: 2
---
header: 
  seq: 668
  stamp: 
    secs: 1558789200
    nsecs: 308595218
  frame_id: "base_link"
status: 
  status: 0
  service: 1
latitude: 51.4824399
longitude: -0.218034
altitude: 58.6005016342
position_covariance: [0.024336, 0.0, 0.0, 0.0, 0.024336, 0.0, 0.0, 0.0, 0.037249000000000004]
position_covariance_type: 2
---
header: 
  seq: 669
  stamp: 
    secs: 1558789200
    nsecs: 517641616
  frame_id: "base_link"
status: 
  status: 0
  service: 1
latitude: 51.4824399
longitude: -0.2180339
altitude: 58.6015015188
position_covariance: [0.024336, 0.0, 0.0, 0.0, 0.024336, 0.0, 0.0, 0.0, 0.037249000000000004]
position_covariance_type: 2
---
header: 
  seq: 670
  stamp: 
    secs: 1558789200
    nsecs: 706968754
  frame_id: "base_link"
status: 
  status: 0
  service: 1
latitude: 51.4824398
longitude: -0.2180339
altitude: 58.6025013972
position_covariance: [0.024336, 0.0, 0.0, 0.0, 0.024336, 0.0, 0.0, 0.0, 0.037249000000000004]
position_covariance_type: 2
---
header: 
  seq: 671
  stamp: 
    secs: 1558789200
    nsecs: 904824132
  frame_id: "base_link"
status: 
  status: 0
  service: 1
latitude: 51.4824399
longitude: -0.2180336
altitude: 58.5825011726
position_covariance: [0.023716, 0.0, 0.0, 0.0, 0.023716, 0.0, 0.0, 0.0, 0.036481]
position_covariance_type: 2
---
header: 
  seq: 672
  stamp: 
    secs: 1558789201
    nsecs: 101053690
  frame_id: "base_link"
status: 
  status: 0
  service: 1
latitude: 51.4824399
longitude: -0.2180336
altitude: 58.5795011726
position_covariance: [0.023716, 0.0, 0.0, 0.0, 0.023716, 0.0, 0.0, 0.0, 0.0361]
position_covariance_type: 2
---
header: 
  seq: 673
  stamp: 
    secs: 1558789201
    nsecs: 308819035
  frame_id: "base_link"
status: 
  status: 0
  service: 1
latitude: 51.4824401
longitude: -0.2180335
altitude: 58.5835013005
position_covariance: [0.023716, 0.0, 0.0, 0.0, 0.023716, 0.0, 0.0, 0.0, 0.0361]
position_covariance_type: 2
---
header: 
  seq: 674
  stamp: 
    secs: 1558789201
    nsecs: 522105395
  frame_id: "base_link"
status: 
  status: 0
  service: 1
latitude: 51.4824402
longitude: -0.2180333
altitude: 58.5785011913
position_covariance: [0.023716, 0.0, 0.0, 0.0, 0.023716, 0.0, 0.0, 0.0, 0.0361]
position_covariance_type: 2
---
header: 
  seq: 675
  stamp: 
    secs: 1558789201
    nsecs: 705372858
  frame_id: "base_link"
status: 
  status: 0
  service: 1
latitude: 51.4824402
longitude: -0.2180331
altitude: 58.5995009605
position_covariance: [0.023716, 0.0, 0.0, 0.0, 0.023716, 0.0, 0.0, 0.0, 0.0361]
position_covariance_type: 2
---
header: 
  seq: 676
  stamp: 
    secs: 1558789201
    nsecs: 907487137
  frame_id: "base_link"
status: 
  status: 0
  service: 1
latitude: 51.4824405
longitude: -0.2180328
altitude: 58.5505009792
position_covariance: [0.023409, 0.0, 0.0, 0.0, 0.023409, 0.0, 0.0, 0.0, 0.035344]
position_covariance_type: 2
---
header: 
  seq: 677
  stamp: 
    secs: 1558789202
    nsecs: 109790975
  frame_id: "base_link"
status: 
  status: 0
  service: 1
latitude: 51.4824405
longitude: -0.2180329
altitude: 58.5135010947
position_covariance: [0.023409, 0.0, 0.0, 0.0, 0.023409, 0.0, 0.0, 0.0, 0.035344]
position_covariance_type: 2
---
header: 
  seq: 678
  stamp: 
    secs: 1558789202
    nsecs: 321395658
  frame_id: "base_link"
status: 
  status: 0
  service: 1
latitude: 51.4824406
longitude: -0.2180329
altitude: 58.5095012163
position_covariance: [0.023409, 0.0, 0.0, 0.0, 0.023409, 0.0, 0.0, 0.0, 0.035344]
position_covariance_type: 2
---
header: 
  seq: 679
  stamp: 
    secs: 1558789202
    nsecs: 512764984
  frame_id: "base_link"
status: 
  status: 0
  service: 1
latitude: 51.4824404
longitude: -0.218033
altitude: 58.5005010884
position_covariance: [0.023409, 0.0, 0.0, 0.0, 0.023409, 0.0, 0.0, 0.0, 0.035721]
position_covariance_type: 2
---
header: 
  seq: 680
  stamp: 
    secs: 1558789202
    nsecs: 704248562
  frame_id: "base_link"
status: 
  status: 0
  service: 1
latitude: 51.4824405
longitude: -0.218033
altitude: 58.5155012101
position_covariance: [0.023409, 0.0, 0.0, 0.0, 0.023409, 0.0, 0.0, 0.0, 0.035721]
position_covariance_type: 2
---
header: 
  seq: 681
  stamp: 
    secs: 1558789202
    nsecs: 906279034
  frame_id: "base_link"
status: 
  status: 0
  service: 1
latitude: 51.4824407
longitude: -0.2180326
altitude: 58.4875009917
position_covariance: [0.023104, 0.0, 0.0, 0.0, 0.023104, 0.0, 0.0, 0.0, 0.034969]
position_covariance_type: 2
---
header: 
  seq: 682
  stamp: 
    secs: 1558789203
    nsecs: 110625109
  frame_id: "base_link"
status: 
  status: 0
  service: 1
latitude: 51.4824406
longitude: -0.2180327
altitude: 58.4725009855
position_covariance: [0.023104, 0.0, 0.0, 0.0, 0.023104, 0.0, 0.0, 0.0, 0.035344]
position_covariance_type: 2
---
header: 
  seq: 683
  stamp: 
    secs: 1558789203
    nsecs: 312449830
  frame_id: "base_link"
status: 
  status: 0
  service: 1
latitude: 51.4824406
longitude: -0.2180327
altitude: 58.4715009855
position_covariance: [0.023104, 0.0, 0.0, 0.0, 0.023104, 0.0, 0.0, 0.0, 0.035344]
position_covariance_type: 2
---
header: 
  seq: 684
  stamp: 
    secs: 1558789203
    nsecs: 527007713
  frame_id: "base_link"
status: 
  status: 0
  service: 1
latitude: 51.4824406
longitude: -0.2180327
altitude: 58.4635009855
position_covariance: [0.023104, 0.0, 0.0, 0.0, 0.023104, 0.0, 0.0, 0.0, 0.035721]
position_covariance_type: 2
---
header: 
  seq: 685
  stamp: 
    secs: 1558789203
    nsecs: 702225592
  frame_id: "base_link"
status: 
  status: 0
  service: 1
latitude: 51.4824406
longitude: -0.2180326
altitude: 58.4635008701
position_covariance: [0.023104, 0.0, 0.0, 0.0, 0.023104, 0.0, 0.0, 0.0, 0.035721]
position_covariance_type: 2
---
header: 
  seq: 686
  stamp: 
    secs: 1558789203
    nsecs: 901725778
  frame_id: "base_link"
status: 
  status: 0
  service: 1
latitude: 51.4824408
longitude: -0.218032
altitude: 58.4735004209
position_covariance: [0.0225, 0.0, 0.0, 0.0, 0.0225, 0.0, 0.0, 0.0, 0.034596]
position_covariance_type: 2
---
header: 
  seq: 687
  stamp: 
    secs: 1558789204
    nsecs: 112903171
  frame_id: "base_link"
status: 
  status: 0
  service: 1
latitude: 51.4824407
longitude: -0.2180319
altitude: 58.4685001839
position_covariance: [0.0225, 0.0, 0.0, 0.0, 0.0225, 0.0, 0.0, 0.0, 0.034596]
position_covariance_type: 2
---
header: 
  seq: 688
  stamp: 
    secs: 1558789204
    nsecs: 315708965
  frame_id: "base_link"
status: 
  status: 0
  service: 1
latitude: 51.4824408
longitude: -0.2180318
altitude: 58.4785001901
position_covariance: [0.022801, 0.0, 0.0, 0.0, 0.022801, 0.0, 0.0, 0.0, 0.034969]
position_covariance_type: 2
---
header: 
  seq: 689
  stamp: 
    secs: 1558789204
    nsecs: 517663663
  frame_id: "base_link"
status: 
  status: 0
  service: 1
latitude: 51.4824407
longitude: -0.2180319
altitude: 58.4785001839
position_covariance: [0.022801, 0.0, 0.0, 0.0, 0.022801, 0.0, 0.0, 0.0, 0.035344]
position_covariance_type: 2
---
header: 
  seq: 690
  stamp: 
    secs: 1558789204
    nsecs: 713002467
  frame_id: "base_link"
status: 
  status: 0
  service: 1
latitude: 51.4824407
longitude: -0.2180319
altitude: 58.4745001839
position_covariance: [0.022801, 0.0, 0.0, 0.0, 0.022801, 0.0, 0.0, 0.0, 0.035344]
position_covariance_type: 2
---
header: 
  seq: 691
  stamp: 
    secs: 1558789204
    nsecs: 913473833
  frame_id: "base_link"
status: 
  status: 0
  service: 1
latitude: 51.4824407
longitude: -0.2180317
altitude: 58.434499953
position_covariance: [0.022201, 0.0, 0.0, 0.0, 0.022201, 0.0, 0.0, 0.0, 0.034596]
position_covariance_type: 2
---
header: 
  seq: 692
  stamp: 
    secs: 1558789205
    nsecs: 100638017
  frame_id: "base_link"
status: 
  status: 0
  service: 1
latitude: 51.4824406
longitude: -0.2180317
altitude: 58.4104998314
position_covariance: [0.022201, 0.0, 0.0, 0.0, 0.022201, 0.0, 0.0, 0.0, 0.034225]
position_covariance_type: 2
---
header: 
  seq: 693
  stamp: 
    secs: 1558789205
    nsecs: 313684397
  frame_id: "base_link"
status: 
  status: 0
  service: 1
latitude: 51.4824406
longitude: -0.2180318
altitude: 58.4074999468
position_covariance: [0.022201, 0.0, 0.0, 0.0, 0.022201, 0.0, 0.0, 0.0, 0.034225]
position_covariance_type: 2
---
header: 
  seq: 694
  stamp: 
    secs: 1558789205
    nsecs: 525056603
  frame_id: "base_link"
status: 
  status: 0
  service: 1
latitude: 51.4824407
longitude: -0.2180316
altitude: 58.4154998376
position_covariance: [0.0225, 0.0, 0.0, 0.0, 0.0225, 0.0, 0.0, 0.0, 0.034596]
position_covariance_type: 2
---
header: 
  seq: 695
  stamp: 
    secs: 1558789205
    nsecs: 712962245
  frame_id: "base_link"
status: 
  status: 0
  service: 1
latitude: 51.4824407
longitude: -0.2180317
altitude: 58.414499953
position_covariance: [0.022201, 0.0, 0.0, 0.0, 0.022201, 0.0, 0.0, 0.0, 0.034225]
position_covariance_type: 2
---
header: 
  seq: 696
  stamp: 
    secs: 1558789205
    nsecs: 904907670
  frame_id: "base_link"
status: 
  status: 0
  service: 1
latitude: 51.4824407
longitude: -0.2180315
altitude: 58.3684997222
position_covariance: [0.021903999999999996, 0.0, 0.0, 0.0, 0.021903999999999996, 0.0, 0.0, 0.0, 0.033856]
position_covariance_type: 2
---
header: 
  seq: 697
  stamp: 
    secs: 1558789206
    nsecs: 114187312
  frame_id: "base_link"
status: 
  status: 0
  service: 1
latitude: 51.4824408
longitude: -0.2180315
altitude: 58.3524998439
position_covariance: [0.021903999999999996, 0.0, 0.0, 0.0, 0.021903999999999996, 0.0, 0.0, 0.0, 0.033489]
position_covariance_type: 2
---
header: 
  seq: 698
  stamp: 
    secs: 1558789206
    nsecs: 305207565
  frame_id: "base_link"
status: 
  status: 0
  service: 1
latitude: 51.4824406
longitude: -0.2180316
altitude: 58.344499716
position_covariance: [0.021903999999999996, 0.0, 0.0, 0.0, 0.021903999999999996, 0.0, 0.0, 0.0, 0.033489]
position_covariance_type: 2
---
header: 
  seq: 699
  stamp: 
    secs: 1558789206
    nsecs: 511709614
  frame_id: "base_link"
status: 
  status: 0
  service: 1
latitude: 51.4824407
longitude: -0.2180314
altitude: 58.3584996068
position_covariance: [0.021903999999999996, 0.0, 0.0, 0.0, 0.021903999999999996, 0.0, 0.0, 0.0, 0.033856]
position_covariance_type: 2
---
header: 
  seq: 700
  stamp: 
    secs: 1558789206
    nsecs: 706683421
  frame_id: "base_link"
status: 
  status: 0
  service: 1
latitude: 51.4824406
longitude: -0.2180316
altitude: 58.352499716
position_covariance: [0.021903999999999996, 0.0, 0.0, 0.0, 0.021903999999999996, 0.0, 0.0, 0.0, 0.033489]
position_covariance_type: 2
---
header: 
  seq: 701
  stamp: 
    secs: 1558789206
    nsecs: 905572413
  frame_id: "base_link"
status: 
  status: 0
  service: 1
latitude: 51.4824405
longitude: -0.2180313
altitude: 58.3624992481
position_covariance: [0.021315999999999998, 0.0, 0.0, 0.0, 0.021315999999999998, 0.0, 0.0, 0.0, 0.032761]
position_covariance_type: 2
---
header: 
  seq: 702
  stamp: 
    secs: 1558789207
    nsecs: 108210261
  frame_id: "base_link"
status: 
  status: 0
  service: 1
latitude: 51.4824403
longitude: -0.2180315
altitude: 58.3544992356
position_covariance: [0.021315999999999998, 0.0, 0.0, 0.0, 0.021315999999999998, 0.0, 0.0, 0.0, 0.0324]
position_covariance_type: 2
---
header: 
  seq: 703
  stamp: 
    secs: 1558789207
    nsecs: 315920794
  frame_id: "base_link"
status: 
  status: 0
  service: 1
latitude: 51.4824405
longitude: -0.2180313
altitude: 58.3584992481
position_covariance: [0.021025, 0.0, 0.0, 0.0, 0.021025, 0.0, 0.0, 0.0, 0.0324]
position_covariance_type: 2
---
header: 
  seq: 704
  stamp: 
    secs: 1558789207
    nsecs: 524137546
  frame_id: "base_link"
status: 
  status: 0
  service: 1
latitude: 51.4824407
longitude: -0.218031
altitude: 58.3804991452
position_covariance: [0.021025, 0.0, 0.0, 0.0, 0.021025, 0.0, 0.0, 0.0, 0.032041]
position_covariance_type: 2
---
header: 
  seq: 705
  stamp: 
    secs: 1558789207
    nsecs: 709621792
  frame_id: "base_link"
status: 
  status: 0
  service: 1
latitude: 51.4824407
longitude: -0.2180309
altitude: 58.3884990298
position_covariance: [0.021025, 0.0, 0.0, 0.0, 0.021025, 0.0, 0.0, 0.0, 0.032041]
position_covariance_type: 2
---
header: 
  seq: 706
  stamp: 
    secs: 1558789207
    nsecs: 896769382
  frame_id: "base_link"
status: 
  status: 0
  service: 1
latitude: 51.4824407
longitude: -0.2180308
altitude: 58.3314989144
position_covariance: [0.020735999999999997, 0.0, 0.0, 0.0, 0.020735999999999997, 0.0, 0.0, 0.0, 0.031328999999999996]
position_covariance_type: 2
---
header: 
  seq: 707
  stamp: 
    secs: 1558789208
    nsecs: 110390605
  frame_id: "base_link"
status: 
  status: 0
  service: 1
latitude: 51.4824409
longitude: -0.2180307
altitude: 58.3204990423
position_covariance: [0.020735999999999997, 0.0, 0.0, 0.0, 0.020735999999999997, 0.0, 0.0, 0.0, 0.030975999999999997]
position_covariance_type: 2
---
header: 
  seq: 708
  stamp: 
    secs: 1558789208
    nsecs: 334458546
  frame_id: "base_link"
status: 
  status: 0
  service: 1
latitude: 51.4824408
longitude: -0.2180307
altitude: 58.3164989206
position_covariance: [0.020448999999999995, 0.0, 0.0, 0.0, 0.020448999999999995, 0.0, 0.0, 0.0, 0.030624999999999996]
position_covariance_type: 2
---
header: 
  seq: 709
  stamp: 
    secs: 1558789208
    nsecs: 525544453
  frame_id: "base_link"
status: 
  status: 0
  service: 1
latitude: 51.4824409
longitude: -0.2180307
altitude: 58.3264990423
position_covariance: [0.020735999999999997, 0.0, 0.0, 0.0, 0.020735999999999997, 0.0, 0.0, 0.0, 0.030975999999999997]
position_covariance_type: 2
---
header: 
  seq: 710
  stamp: 
    secs: 1558789208
    nsecs: 708353556
  frame_id: "base_link"
status: 
  status: 0
  service: 1
latitude: 51.4824408
longitude: -0.2180307
altitude: 58.3284989206
position_covariance: [0.020735999999999997, 0.0, 0.0, 0.0, 0.020735999999999997, 0.0, 0.0, 0.0, 0.031328999999999996]
position_covariance_type: 2
---
header: 
  seq: 711
  stamp: 
    secs: 1558789208
    nsecs: 903748594
  frame_id: "base_link"
status: 
  status: 0
  service: 1
latitude: 51.4824408
longitude: -0.2180305
altitude: 58.3344986898
position_covariance: [0.020163999999999998, 0.0, 0.0, 0.0, 0.020163999999999998, 0.0, 0.0, 0.0, 0.030624999999999996]
position_covariance_type: 2
---
header: 
  seq: 712
  stamp: 
    secs: 1558789209
    nsecs: 105819368
  frame_id: "base_link"
status: 
  status: 0
  service: 1
latitude: 51.4824409
longitude: -0.2180304
altitude: 58.348498696
position_covariance: [0.020163999999999998, 0.0, 0.0, 0.0, 0.020163999999999998, 0.0, 0.0, 0.0, 0.030275999999999997]
position_covariance_type: 2
---
header: 
  seq: 713
  stamp: 
    secs: 1558789209
    nsecs: 304926260
  frame_id: "base_link"
status: 
  status: 0
  service: 1
latitude: 51.4824409
longitude: -0.2180304
altitude: 58.341498696
position_covariance: [0.020163999999999998, 0.0, 0.0, 0.0, 0.020163999999999998, 0.0, 0.0, 0.0, 0.030275999999999997]
position_covariance_type: 2
---
header: 
  seq: 714
  stamp: 
    secs: 1558789209
    nsecs: 516648064
  frame_id: "base_link"
status: 
  status: 0
  service: 1
latitude: 51.4824409
longitude: -0.2180304
altitude: 58.335498696
position_covariance: [0.020163999999999998, 0.0, 0.0, 0.0, 0.020163999999999998, 0.0, 0.0, 0.0, 0.030275999999999997]
position_covariance_type: 2
---
header: 
  seq: 715
  stamp: 
    secs: 1558789209
    nsecs: 710229392
  frame_id: "base_link"
status: 
  status: 0
  service: 1
latitude: 51.4824409
longitude: -0.2180304
altitude: 58.332498696
position_covariance: [0.020163999999999998, 0.0, 0.0, 0.0, 0.020163999999999998, 0.0, 0.0, 0.0, 0.030624999999999996]
position_covariance_type: 2
---
header: 
  seq: 716
  stamp: 
    secs: 1558789209
    nsecs: 905663349
  frame_id: "base_link"
status: 
  status: 0
  service: 1
latitude: 51.4824409
longitude: -0.2180302
altitude: 58.3244984652
position_covariance: [0.017956000000000003, 0.0, 0.0, 0.0, 0.017956000000000003, 0.0, 0.0, 0.0, 0.024964]
position_covariance_type: 2
---
header: 
  seq: 717
  stamp: 
    secs: 1558789210
    nsecs: 104905669
  frame_id: "base_link"
status: 
  status: 0
  service: 1
latitude: 51.4824409
longitude: -0.2180302
altitude: 58.3254984652
position_covariance: [0.019600000000000003, 0.0, 0.0, 0.0, 0.019600000000000003, 0.0, 0.0, 0.0, 0.028900000000000006]
position_covariance_type: 2
---
header: 
  seq: 718
  stamp: 
    secs: 1558789210
    nsecs: 310825220
  frame_id: "base_link"
status: 
  status: 0
  service: 1
latitude: 51.482441
longitude: -0.2180301
altitude: 58.3484984714
position_covariance: [0.019880999999999996, 0.0, 0.0, 0.0, 0.019880999999999996, 0.0, 0.0, 0.0, 0.029583999999999996]
position_covariance_type: 2
---
header: 
  seq: 719
  stamp: 
    secs: 1558789210
    nsecs: 519600026
  frame_id: "base_link"
status: 
  status: 0
  service: 1
latitude: 51.482441
longitude: -0.21803
altitude: 58.346498356
position_covariance: [0.019880999999999996, 0.0, 0.0, 0.0, 0.019880999999999996, 0.0, 0.0, 0.0, 0.029928999999999997]
position_covariance_type: 2
---
header: 
  seq: 720
  stamp: 
    secs: 1558789210
    nsecs: 706123617
  frame_id: "base_link"
status: 
  status: 0
  service: 1
latitude: 51.4824409
longitude: -0.2180301
altitude: 58.3394983498
position_covariance: [0.019880999999999996, 0.0, 0.0, 0.0, 0.019880999999999996, 0.0, 0.0, 0.0, 0.029928999999999997]
position_covariance_type: 2
---
header: 
  seq: 721
  stamp: 
    secs: 1558789210
    nsecs: 911479366
  frame_id: "base_link"
status: 
  status: 0
  service: 1
latitude: 51.4824408
longitude: -0.2180302
altitude: 58.2944983435
position_covariance: [0.019600000000000003, 0.0, 0.0, 0.0, 0.019600000000000003, 0.0, 0.0, 0.0, 0.029241000000000003]
position_covariance_type: 2
---
header: 
  seq: 722
  stamp: 
    secs: 1558789211
    nsecs: 107336131
  frame_id: "base_link"
status: 
  status: 0
  service: 1
latitude: 51.4824409
longitude: -0.2180303
altitude: 58.2794985806
position_covariance: [0.019321000000000005, 0.0, 0.0, 0.0, 0.019321000000000005, 0.0, 0.0, 0.0, 0.028900000000000006]
position_covariance_type: 2
---
header: 
  seq: 723
  stamp: 
    secs: 1558789211
    nsecs: 314981349
  frame_id: "base_link"
status: 
  status: 0
  service: 1
latitude: 51.4824409
longitude: -0.2180302
altitude: 58.2724984652
position_covariance: [0.019044000000000002, 0.0, 0.0, 0.0, 0.019044000000000002, 0.0, 0.0, 0.0, 0.028561000000000003]
position_covariance_type: 2
---
header: 
  seq: 724
  stamp: 
    secs: 1558789211
    nsecs: 526062027
  frame_id: "base_link"
status: 
  status: 0
  service: 1
latitude: 51.4824408
longitude: -0.2180301
altitude: 58.2874982281
position_covariance: [0.019044000000000002, 0.0, 0.0, 0.0, 0.019044000000000002, 0.0, 0.0, 0.0, 0.028900000000000006]
position_covariance_type: 2
---
header: 
  seq: 725
  stamp: 
    secs: 1558789211
    nsecs: 712740784
  frame_id: "base_link"
status: 
  status: 0
  service: 1
latitude: 51.4824407
longitude: -0.2180303
altitude: 58.2814983373
position_covariance: [0.019044000000000002, 0.0, 0.0, 0.0, 0.019044000000000002, 0.0, 0.0, 0.0, 0.028900000000000006]
position_covariance_type: 2
---
header: 
  seq: 726
  stamp: 
    secs: 1558789211
    nsecs: 904050498
  frame_id: "base_link"
status: 
  status: 0
  service: 1
latitude: 51.4824407
longitude: -0.2180304
altitude: 58.2584984527
position_covariance: [0.018225, 0.0, 0.0, 0.0, 0.018225, 0.0, 0.0, 0.0, 0.023409]
position_covariance_type: 2
---
header: 
  seq: 727
  stamp: 
    secs: 1558789212
    nsecs: 123272329
  frame_id: "base_link"
status: 
  status: 0
  service: 1
latitude: 51.4824407
longitude: -0.2180305
altitude: 58.2514985681
position_covariance: [0.018225, 0.0, 0.0, 0.0, 0.018225, 0.0, 0.0, 0.0, 0.023104]
position_covariance_type: 2
---
header: 
  seq: 728
  stamp: 
    secs: 1558789212
    nsecs: 317357712
  frame_id: "base_link"
status: 
  status: 0
  service: 1
latitude: 51.4824408
longitude: -0.2180304
altitude: 58.2624985744
position_covariance: [0.018225, 0.0, 0.0, 0.0, 0.018225, 0.0, 0.0, 0.0, 0.023104]
position_covariance_type: 2
---
header: 
  seq: 729
  stamp: 
    secs: 1558789212
    nsecs: 528457283
  frame_id: "base_link"
status: 
  status: 0
  service: 1
latitude: 51.4824407
longitude: -0.2180305
altitude: 58.2624985681
position_covariance: [0.018225, 0.0, 0.0, 0.0, 0.018225, 0.0, 0.0, 0.0, 0.023104]
position_covariance_type: 2
---
header: 
  seq: 730
  stamp: 
    secs: 1558789212
    nsecs: 710238802
  frame_id: "base_link"
status: 
  status: 0
  service: 1
latitude: 51.4824406
longitude: -0.2180305
altitude: 58.2514984465
position_covariance: [0.021025, 0.0, 0.0, 0.0, 0.021025, 0.0, 0.0, 0.0, 0.028224000000000003]
position_covariance_type: 2
---
header: 
  seq: 731
  stamp: 
    secs: 1558789212
    nsecs: 908697011
  frame_id: "base_link"
status: 
  status: 0
  service: 1
latitude: 51.4824406
longitude: -0.2180308
altitude: 58.2064987927
position_covariance: [0.020735999999999997, 0.0, 0.0, 0.0, 0.020735999999999997, 0.0, 0.0, 0.0, 0.027889000000000004]
position_covariance_type: 2
---
header: 
  seq: 732
  stamp: 
    secs: 1558789213
    nsecs: 109327421
  frame_id: "base_link"
status: 
  status: 0
  service: 1
latitude: 51.4824407
longitude: -0.2180309
altitude: 58.1884990298
position_covariance: [0.020735999999999997, 0.0, 0.0, 0.0, 0.020735999999999997, 0.0, 0.0, 0.0, 0.027889000000000004]
position_covariance_type: 2
---
header: 
  seq: 733
  stamp: 
    secs: 1558789213
    nsecs: 307721002
  frame_id: "base_link"
status: 
  status: 0
  service: 1
latitude: 51.4824405
longitude: -0.2180311
altitude: 58.1734990173
position_covariance: [0.020735999999999997, 0.0, 0.0, 0.0, 0.020735999999999997, 0.0, 0.0, 0.0, 0.027889000000000004]
position_covariance_type: 2
---
header: 
  seq: 734
  stamp: 
    secs: 1558789213
    nsecs: 521604460
  frame_id: "base_link"
status: 
  status: 0
  service: 1
latitude: 51.4824407
longitude: -0.2180309
altitude: 58.1874990298
position_covariance: [0.020735999999999997, 0.0, 0.0, 0.0, 0.020735999999999997, 0.0, 0.0, 0.0, 0.027889000000000004]
position_covariance_type: 2
---
header: 
  seq: 735
  stamp: 
    secs: 1558789213
    nsecs: 713380794
  frame_id: "base_link"
status: 
  status: 0
  service: 1
latitude: 51.4824405
longitude: -0.2180311
altitude: 58.1724990173
position_covariance: [0.020735999999999997, 0.0, 0.0, 0.0, 0.020735999999999997, 0.0, 0.0, 0.0, 0.027889000000000004]
position_covariance_type: 2
---
header: 
  seq: 736
  stamp: 
    secs: 1558789213
    nsecs: 906235863
  frame_id: "base_link"
status: 
  status: 0
  service: 1
latitude: 51.4824404
longitude: -0.2180314
altitude: 58.1464992418
position_covariance: [0.020163999999999998, 0.0, 0.0, 0.0, 0.020163999999999998, 0.0, 0.0, 0.0, 0.027225000000000003]
position_covariance_type: 2
---
header: 
  seq: 737
  stamp: 
    secs: 1558789214
    nsecs: 116223898
  frame_id: "base_link"
status: 
  status: 0
  service: 1
latitude: 51.4824403
longitude: -0.2180316
altitude: 58.131499351
position_covariance: [0.020163999999999998, 0.0, 0.0, 0.0, 0.020163999999999998, 0.0, 0.0, 0.0, 0.027225000000000003]
position_covariance_type: 2
---
header: 
  seq: 738
  stamp: 
    secs: 1558789214
    nsecs: 311868317
  frame_id: "base_link"
status: 
  status: 0
  service: 1
latitude: 51.4824403
longitude: -0.2180316
altitude: 58.128499351
position_covariance: [0.020163999999999998, 0.0, 0.0, 0.0, 0.020163999999999998, 0.0, 0.0, 0.0, 0.026896000000000003]
position_covariance_type: 2
---
header: 
  seq: 739
  stamp: 
    secs: 1558789214
    nsecs: 525372716
  frame_id: "base_link"
status: 
  status: 0
  service: 1
latitude: 51.4824403
longitude: -0.2180315
altitude: 58.1354992356
position_covariance: [0.020163999999999998, 0.0, 0.0, 0.0, 0.020163999999999998, 0.0, 0.0, 0.0, 0.026896000000000003]
position_covariance_type: 2
---
header: 
  seq: 740
  stamp: 
    secs: 1558789214
    nsecs: 696259023
  frame_id: "base_link"
status: 
  status: 0
  service: 1
latitude: 51.4824403
longitude: -0.2180315
altitude: 58.1344992356
position_covariance: [0.020163999999999998, 0.0, 0.0, 0.0, 0.020163999999999998, 0.0, 0.0, 0.0, 0.026896000000000003]
position_covariance_type: 2
---
header: 
  seq: 741
  stamp: 
    secs: 1558789214
    nsecs: 907618354
  frame_id: "base_link"
status: 
  status: 0
  service: 1
latitude: 51.4824401
longitude: -0.2180316
altitude: 58.1334991077
position_covariance: [0.017161000000000003, 0.0, 0.0, 0.0, 0.017161000000000003, 0.0, 0.0, 0.0, 0.021608999999999996]
position_covariance_type: 2
---
header: 
  seq: 742
  stamp: 
    secs: 1558789215
    nsecs: 111657878
  frame_id: "base_link"
status: 
  status: 0
  service: 1
latitude: 51.4824401
longitude: -0.2180316
altitude: 58.1354991077
position_covariance: [0.016900000000000002, 0.0, 0.0, 0.0, 0.016900000000000002, 0.0, 0.0, 0.0, 0.021025]
position_covariance_type: 2
---
header: 
  seq: 743
  stamp: 
    secs: 1558789215
    nsecs: 313335136
  frame_id: "base_link"
status: 
  status: 0
  service: 1
latitude: 51.48244
longitude: -0.2180317
altitude: 58.1234991014
position_covariance: [0.016900000000000002, 0.0, 0.0, 0.0, 0.016900000000000002, 0.0, 0.0, 0.0, 0.021025]
position_covariance_type: 2
---
header: 
  seq: 744
  stamp: 
    secs: 1558789215
    nsecs: 535863657
  frame_id: "base_link"
status: 
  status: 0
  service: 1
latitude: 51.4824403
longitude: -0.2180315
altitude: 58.1424992356
position_covariance: [0.017161000000000003, 0.0, 0.0, 0.0, 0.017161000000000003, 0.0, 0.0, 0.0, 0.021315999999999998]
position_covariance_type: 2
---
header: 
  seq: 745
  stamp: 
    secs: 1558789215
    nsecs: 709695791
  frame_id: "base_link"
status: 
  status: 0
  service: 1
latitude: 51.4824401
longitude: -0.2180316
altitude: 58.1304991077
position_covariance: [0.017161000000000003, 0.0, 0.0, 0.0, 0.017161000000000003, 0.0, 0.0, 0.0, 0.021315999999999998]
position_covariance_type: 2
---
header: 
  seq: 746
  stamp: 
    secs: 1558789215
    nsecs: 905651578
  frame_id: "base_link"
status: 
  status: 0
  service: 1
latitude: 51.4824399
longitude: -0.2180314
altitude: 58.1374986336
position_covariance: [0.016641, 0.0, 0.0, 0.0, 0.016641, 0.0, 0.0, 0.0, 0.020735999999999997]
position_covariance_type: 2
---
header: 
  seq: 747
  stamp: 
    secs: 1558789216
    nsecs: 101960529
  frame_id: "base_link"
status: 
  status: 0
  service: 1
latitude: 51.4824399
longitude: -0.2180314
altitude: 58.1384986336
position_covariance: [0.016641, 0.0, 0.0, 0.0, 0.016641, 0.0, 0.0, 0.0, 0.020735999999999997]
position_covariance_type: 2
---
header: 
  seq: 748
  stamp: 
    secs: 1558789216
    nsecs: 327136093
  frame_id: "base_link"
status: 
  status: 0
  service: 1
latitude: 51.4824396
longitude: -0.2180317
altitude: 58.1134986148
position_covariance: [0.016641, 0.0, 0.0, 0.0, 0.016641, 0.0, 0.0, 0.0, 0.020735999999999997]
position_covariance_type: 2
---
header: 
  seq: 749
  stamp: 
    secs: 1558789216
    nsecs: 527523306
  frame_id: "base_link"
status: 
  status: 0
  service: 1
latitude: 51.4824398
longitude: -0.2180315
altitude: 58.1294986273
position_covariance: [0.016641, 0.0, 0.0, 0.0, 0.016641, 0.0, 0.0, 0.0, 0.020735999999999997]
position_covariance_type: 2
---
header: 
  seq: 750
  stamp: 
    secs: 1558789216
    nsecs: 713344368
  frame_id: "base_link"
status: 
  status: 0
  service: 1
latitude: 51.4824397
longitude: -0.2180316
altitude: 58.1244986211
position_covariance: [0.016641, 0.0, 0.0, 0.0, 0.016641, 0.0, 0.0, 0.0, 0.020735999999999997]
position_covariance_type: 2
---
header: 
  seq: 751
  stamp: 
    secs: 1558789216
    nsecs: 912556941
  frame_id: "base_link"
status: 
  status: 0
  service: 1
latitude: 51.4824393
longitude: -0.218032
altitude: 58.1604985961
position_covariance: [0.016384, 0.0, 0.0, 0.0, 0.016384, 0.0, 0.0, 0.0, 0.020448999999999995]
position_covariance_type: 2
---
header: 
  seq: 752
  stamp: 
    secs: 1558789217
    nsecs: 107253613
  frame_id: "base_link"
status: 
  status: 0
  service: 1
latitude: 51.4824393
longitude: -0.2180319
altitude: 58.1804984807
position_covariance: [0.016384, 0.0, 0.0, 0.0, 0.016384, 0.0, 0.0, 0.0, 0.020163999999999998]
position_covariance_type: 2
---
header: 
  seq: 753
  stamp: 
    secs: 1558789217
    nsecs: 314126803
  frame_id: "base_link"
status: 
  status: 0
  service: 1
latitude: 51.4824392
longitude: -0.218032
altitude: 58.1694984744
position_covariance: [0.016384, 0.0, 0.0, 0.0, 0.016384, 0.0, 0.0, 0.0, 0.020163999999999998]
position_covariance_type: 2
---
header: 
  seq: 754
  stamp: 
    secs: 1558789217
    nsecs: 525527053
  frame_id: "base_link"
status: 
  status: 0
  service: 1
latitude: 51.4824396
longitude: -0.2180316
altitude: 58.2064984994
position_covariance: [0.016384, 0.0, 0.0, 0.0, 0.016384, 0.0, 0.0, 0.0, 0.020448999999999995]
position_covariance_type: 2
---
header: 
  seq: 755
  stamp: 
    secs: 1558789217
    nsecs: 708680610
  frame_id: "base_link"
status: 
  status: 0
  service: 1
latitude: 51.4824396
longitude: -0.2180315
altitude: 58.225498384
position_covariance: [0.016384, 0.0, 0.0, 0.0, 0.016384, 0.0, 0.0, 0.0, 0.020163999999999998]
position_covariance_type: 2
---
header: 
  seq: 756
  stamp: 
    secs: 1558789217
    nsecs: 907595149
  frame_id: "base_link"
status: 
  status: 0
  service: 1
latitude: 51.4824394
longitude: -0.2180317
altitude: 58.2404983715
position_covariance: [0.016129, 0.0, 0.0, 0.0, 0.016129, 0.0, 0.0, 0.0, 0.019880999999999996]
position_covariance_type: 2
---
header: 
  seq: 757
  stamp: 
    secs: 1558789218
    nsecs: 119365536
  frame_id: "base_link"
status: 
  status: 0
  service: 1
latitude: 51.4824393
longitude: -0.2180318
altitude: 58.2234983653
position_covariance: [0.016129, 0.0, 0.0, 0.0, 0.016129, 0.0, 0.0, 0.0, 0.019600000000000003]
position_covariance_type: 2
---
header: 
  seq: 758
  stamp: 
    secs: 1558789218
    nsecs: 325334811
  frame_id: "base_link"
status: 
  status: 0
  service: 1
latitude: 51.4824393
longitude: -0.2180319
altitude: 58.2284984807
position_covariance: [0.016129, 0.0, 0.0, 0.0, 0.016129, 0.0, 0.0, 0.0, 0.019600000000000003]
position_covariance_type: 2
---
header: 
  seq: 759
  stamp: 
    secs: 1558789218
    nsecs: 527471556
  frame_id: "base_link"
status: 
  status: 0
  service: 1
latitude: 51.4824394
longitude: -0.2180318
altitude: 58.2344984869
position_covariance: [0.016129, 0.0, 0.0, 0.0, 0.016129, 0.0, 0.0, 0.0, 0.019880999999999996]
position_covariance_type: 2
---
header: 
  seq: 760
  stamp: 
    secs: 1558789218
    nsecs: 707085069
  frame_id: "base_link"
status: 
  status: 0
  service: 1
latitude: 51.4824394
longitude: -0.2180317
altitude: 58.2284983715
position_covariance: [0.016129, 0.0, 0.0, 0.0, 0.016129, 0.0, 0.0, 0.0, 0.019600000000000003]
position_covariance_type: 2
---
header: 
  seq: 761
  stamp: 
    secs: 1558789218
    nsecs: 910837481
  frame_id: "base_link"
status: 
  status: 0
  service: 1
latitude: 51.4824392
longitude: -0.2180321
altitude: 58.2164985898
position_covariance: [0.015625, 0.0, 0.0, 0.0, 0.015625, 0.0, 0.0, 0.0, 0.019321000000000005]
position_covariance_type: 2
---
header: 
  seq: 762
  stamp: 
    secs: 1558789219
    nsecs: 109098994
  frame_id: "base_link"
status: 
  status: 0
  service: 1
latitude: 51.4824392
longitude: -0.2180322
altitude: 58.2044987052
position_covariance: [0.015625, 0.0, 0.0, 0.0, 0.015625, 0.0, 0.0, 0.0, 0.019321000000000005]
position_covariance_type: 2
---
header: 
  seq: 763
  stamp: 
    secs: 1558789219
    nsecs: 326458128
  frame_id: "base_link"
status: 
  status: 0
  service: 1
latitude: 51.4824394
longitude: -0.2180321
altitude: 58.2174988331
position_covariance: [0.015625, 0.0, 0.0, 0.0, 0.015625, 0.0, 0.0, 0.0, 0.019321000000000005]
position_covariance_type: 2
---
header: 
  seq: 764
  stamp: 
    secs: 1558789219
    nsecs: 514571927
  frame_id: "base_link"
status: 
  status: 0
  service: 1
latitude: 51.4824393
longitude: -0.2180321
altitude: 58.2144987115
position_covariance: [0.015625, 0.0, 0.0, 0.0, 0.015625, 0.0, 0.0, 0.0, 0.019321000000000005]
position_covariance_type: 2
---
header: 
  seq: 765
  stamp: 
    secs: 1558789219
    nsecs: 709675583
  frame_id: "base_link"
status: 
  status: 0
  service: 1
latitude: 51.4824392
longitude: -0.2180323
altitude: 58.2024988207
position_covariance: [0.015625, 0.0, 0.0, 0.0, 0.015625, 0.0, 0.0, 0.0, 0.019321000000000005]
position_covariance_type: 2
---
header: 
  seq: 766
  stamp: 
    secs: 1558789219
    nsecs: 903783667
  frame_id: "base_link"
status: 
  status: 0
  service: 1
latitude: 51.4824389
longitude: -0.2180327
altitude: 58.1934989173
position_covariance: [0.015375999999999999, 0.0, 0.0, 0.0, 0.015375999999999999, 0.0, 0.0, 0.0, 0.019044000000000002]
position_covariance_type: 2
---
header: 
  seq: 767
  stamp: 
    secs: 1558789220
    nsecs:  96277308
  frame_id: "base_link"
status: 
  status: 0
  service: 1
latitude: 51.4824389
longitude: -0.2180328
altitude: 58.1894990327
position_covariance: [0.015375999999999999, 0.0, 0.0, 0.0, 0.015375999999999999, 0.0, 0.0, 0.0, 0.019044000000000002]
position_covariance_type: 2
---
header: 
  seq: 768
  stamp: 
    secs: 1558789220
    nsecs: 325973127
  frame_id: "base_link"
